<hill-climb>
<event>
	<name>Empire Hill Climb - Volunteer Registration</name>
	<link>/events/empire-hill-climb-volunteer-registration-wilco-road-scca-detroit-532743</link>
	<longitude>-86.0596595225</longitude>
	<latitude>44.8030322467</latitude>
</event>
<event>
	<name>Chasing the Dragon XIV  Hillclimb</name>
	<link>/events/chasing-dragon-xiv-hillclimb-robbinsville-north-carolina-scca-central-carolinas-167710</link>
	<longitude>-83.807397814</longitude>
	<latitude>35.3228662847</latitude>
</event>
<event>
	<name>2021 Mt. Washington Hillclimb Volunteer Sign up</name>
	<link>/events/2020-mt-washington-hillclimb-volunteer-sign-up-auto-road-sports-car-club-079187</link>
	<longitude>-71.2248233278</longitude>
	<latitude>44.2893166439</latitude>
</event>
<event>
	<name>Arizona SCCA Clifton Hill Climb</name>
	<link>/events/arizona-scca-clifton-hill-climb-602403</link>
	<longitude>-109.292144998</longitude>
	<latitude>33.0439429328</latitude>
</event>
<event>
	<name>Mount Equinox Annual Hillclimb</name>
	<link>/events/mount-equinox-annual-hillclimb-vscca-276704</link>
	<longitude>-73.1132067084</longitude>
	<latitude>43.117163975</latitude>
</event>
<event>
	<name>Empire Hill Climb - Competitor Registration</name>
	<link>/events/empire-hill-climb-competitor-registration-wilco-road-scca-detroit-137141</link>
	<longitude>-86.0596595225</longitude>
	<latitude>44.8030322467</latitude>
</event>
<event>
	<name>Monarch Hill Climb</name>
	<link>/events/monarch-hill-climb-forest-road-228-colorado-association-151469</link>
	<longitude>-104.869085247</longitude>
	<latitude>38.8746773504</latitude>
</event>
</hill-climb>
