<hpde-driver-school>
<event>
	<name>Hooked On Driving - California &#x40; Thunderhill Raceway Park</name>
	<link>/events/hooked-on-driving-california-thunderhill-raceway-park-driver-school-766563</link>
	<longitude>-122.333359856</longitude>
	<latitude>39.5364953601</latitude>
</event>
<event>
	<name>Chin Track Days &#x40; Sebring Int&#x27;l Raceway</name>
	<link>/events/chin-track-days-sebring-intl-raceway-driver-school-174242</link>
	<longitude>-81.3502645814</longitude>
	<latitude>27.459575146</latitude>
</event>
<event>
	<name>PCA - Maverick &#x40; Motorsport Ranch - Cresson</name>
	<link>/events/pca-maverick-motorsport-ranch-cresson-driver-school-008538</link>
	<longitude>-97.6125283499</longitude>
	<latitude>32.5250363862</latitude>
</event>
<event>
	<name>RTR ADVANCED DE &#x40;NJMP Thunderbolt November 2020</name>
	<link>/events/rtr-advanced-de-njmp-thunderbolt-november-2020-pca-riesentoter-885769</link>
	<longitude>-75.0574337156</longitude>
	<latitude>39.3549079508</latitude>
</event>
<event>
	<name>Kart Racing School</name>
	<link>/events/kart-racing-school-atlanta-motorsports-park-ks-119031</link>
	<longitude>-84.1187997985</longitude>
	<latitude>34.4211856918</latitude>
</event>
<event>
	<name>Chin Track Days &#x40; Daytona Int&#x27;l Speedway</name>
	<link>/events/chin-track-days-daytona-intl-speedway-driver-school-910606</link>
	<longitude>-81.0703702594</longitude>
	<latitude>29.1844967318</latitude>
</event>
<event>
	<name>Performance Driving Group &#x40; Sebring Int&#x27;l Raceway</name>
	<link>/events/performance-driving-group-sebring-intl-raceway-driver-school-182402</link>
	<longitude>-81.3502645814</longitude>
	<latitude>27.459575146</latitude>
</event>
<event>
	<name>Kart Racing School</name>
	<link>/events/kart-racing-school-atlanta-motorsports-park-ks-492273</link>
	<longitude>-84.1187997985</longitude>
	<latitude>34.4211856918</latitude>
</event>
<event>
	<name>The Driver&#x27;s Edge &#x40; Motorsport Ranch - Cresson</name>
	<link>/events/drivers-edge-motorsport-ranch-cresson-driver-school-909920</link>
	<longitude>-97.6125283499</longitude>
	<latitude>32.5250363862</latitude>
</event>
<event>
	<name>Chin Track Days &#x40; Homestead Miami Speedway</name>
	<link>/events/chin-track-days-homestead-miami-speedway-driver-school-567213</link>
	<longitude>-80.4111887028</longitude>
	<latitude>25.45491121</latitude>
</event>
<event>
	<name>Lucas Oil School of Racing &#x40; Sebring Int&#x27;l Raceway</name>
	<link>/events/lucas-oil-school-of-racing-sebring-intl-raceway-driver-131491</link>
	<longitude>-81.3502645814</longitude>
	<latitude>27.459575146</latitude>
</event>
<event>
	<name>Audi Club NA - Southern California Chapter &#x40; Buttonwillow Raceway</name>
	<link>/events/audi-club-na-southern-california-buttonwillow-raceway-driver-school-445985</link>
	<longitude>-119.546492411</longitude>
	<latitude>35.4880305041</latitude>
</event>
<event>
	<name>Flat Out Motorsports &#x40; Daytona Int&#x27;l Speedway</name>
	<link>/events/flat-out-motorsports-daytona-intl-speedway-driver-school-421052</link>
	<longitude>-81.0703702594</longitude>
	<latitude>29.1844967318</latitude>
</event>
<event>
	<name>Friday at the Track</name>
	<link>/events/friday-at-track-summit-point-circuit-034151</link>
	<longitude>-77.9761169812</longitude>
	<latitude>39.2431387353</latitude>
</event>
<event>
	<name>Driver&#x27;s School</name>
	<link>/events/drivers-school-arizona-motorsports-park-scca-solo-060813</link>
	<longitude>-112.390564691</longitude>
	<latitude>33.5100726077</latitude>
</event>
<event>
	<name>Performance Driving Group &#x40; Sebring Int&#x27;l Raceway</name>
	<link>/events/performance-driving-group-sebring-intl-raceway-driver-school-309647</link>
	<longitude>-81.3502645814</longitude>
	<latitude>27.459575146</latitude>
</event>
<event>
	<name>NASA at Summit Point Motorsports Park</name>
	<link>/events/nasa-mid-atlantic-summit-point-motorsports-park-hpde-3274</link>
	<longitude>-77.977996</longitude>
	<latitude>39.240688</latitude>
</event>
<event>
	<name>Potomac&#x27;s Last DE of the Season</name>
	<link>/events/potomacs-last-de-of-season-summit-point-circuit-pca-potomac-founders-482363</link>
	<longitude>-77.9761169812</longitude>
	<latitude>39.2431387353</latitude>
</event>
<event>
	<name>MSR Houston Competition License School</name>
	<link>/events/msr-houston-competition-license-school-301424</link>
	<longitude>-95.4221071742</longitude>
	<latitude>29.2784289084</latitude>
</event>
<event>
	<name>Performance Driving Group &#x40; Homestead Miami Speedway</name>
	<link>/events/performance-driving-group-homestead-miami-speedway-driver-school-621771</link>
	<longitude>-80.4111887028</longitude>
	<latitude>25.45491121</latitude>
</event>
<event>
	<name>The Driver&#x27;s Edge &#x40; MSR Houston</name>
	<link>/events/drivers-edge-msr-houston-driver-school-086907</link>
	<longitude>-95.4221071742</longitude>
	<latitude>29.2784289084</latitude>
</event>
<event>
	<name>Chin Track Days &#x40; Barber Motorsports Park</name>
	<link>/events/chin-track-days-barber-motorsports-park-driver-school-045470</link>
	<longitude>-86.6209029966</longitude>
	<latitude>33.5322399866</latitude>
</event>
<event>
	<name>Just Track It &#x40; Roebling Road Raceway</name>
	<link>/events/just-track-it-roebling-road-raceway-driver-school-754410</link>
	<longitude>-81.3207581642</longitude>
	<latitude>32.1730050214</latitude>
</event>
<event>
	<name>PCA - Metro New York &#x40; Summit Point - Summit Point Circuit</name>
	<link>/events/pca-metro-new-york-summit-point-circuit-driver-school-646799</link>
	<longitude>-77.9761169812</longitude>
	<latitude>39.2431387353</latitude>
</event>
<event>
	<name>APEX DRIVING ACADEMY HPDE Fri1.7mi 2way on NOV13</name>
	<link>/events/apex-driving-academy-hpde-fri1-7mi-2way-on-nov13-motorsport-ranch-cresson-857159</link>
	<longitude>-97.6125283499</longitude>
	<latitude>32.5250363862</latitude>
</event>
<event>
	<name>July AZP Track Event</name>
	<link>/events/may-azp-track-event-new-york-safety-nyst-events-300470</link>
	<longitude>-74.7808247146</longitude>
	<latitude>42.4867238544</latitude>
</event>
<event>
	<name>Hooked On Driving - Northeast &#x40; Watkins Glen International</name>
	<link>/events/hooked-on-driving-northeast-watkins-glen-international-driver-school-251044</link>
	<longitude>-76.9300393591</longitude>
	<latitude>42.3430474102</latitude>
</event>
<event>
	<name>Watkins Glen 1 Garage Sign-Up</name>
	<link>/events/watkins-glen-1-garage-sign-up-international-pca-northern-new-jersey-524824</link>
	<longitude>-76.9300393591</longitude>
	<latitude>42.3430474102</latitude>
</event>
<event>
	<name>Chin Track Days &#x40; Watkins Glen International</name>
	<link>/events/chin-track-days-watkins-glen-international-driver-school-892616</link>
	<longitude>-76.9300393591</longitude>
	<latitude>42.3430474102</latitude>
</event>
<event>
	<name>Performance Driving Group &#x40; Homestead Miami Speedway</name>
	<link>/events/performance-driving-group-homestead-miami-speedway-driver-school-599888</link>
	<longitude>-80.4111887028</longitude>
	<latitude>25.45491121</latitude>
</event>
<event>
	<name>Edge Addicts &#x40; Motorsport Ranch - Cresson</name>
	<link>/events/edge-addicts-motorsport-ranch-cresson-driver-school-740821</link>
	<longitude>-97.6125283499</longitude>
	<latitude>32.5250363862</latitude>
</event>
<event>
	<name>Rookie Fridays &#x28;7&#x2f;24&#x29;</name>
	<link>/events/rookie-fridays-7-24-pineview-run-889836</link>
	<longitude>-76.182270249</longitude>
	<latitude>42.8795621844</latitude>
</event>
<event>
	<name>Racing School</name>
	<link>/events/racing-school-portland-intl-raceway-pro-drive-675980</link>
	<longitude>-122.689745467</longitude>
	<latitude>45.5927148127</latitude>
</event>
<event>
	<name>DirtFish &#x40; DirtFish Rally School</name>
	<link>/events/dirtfish-rally-school-driver-654681</link>
	<longitude>-121.811519744</longitude>
	<latitude>47.5379356124</latitude>
</event>
<event>
	<name>Hooked On Driving - California &#x40; WeatherTech Raceway Laguna Seca</name>
	<link>/events/hooked-on-driving-california-weathertech-raceway-laguna-seca-driver-school-493474</link>
	<longitude>-121.756400117</longitude>
	<latitude>36.5832991486</latitude>
</event>
<event>
	<name>Rookie Fridays &#x28;7&#x2f;31&#x29;</name>
	<link>/events/rookie-fridays-7-31-pineview-run-990263</link>
	<longitude>-76.182270249</longitude>
	<latitude>42.8795621844</latitude>
</event>
<event>
	<name>DafanZ TrackTime4Cars &#x28;TT4C&#x29; Pocono North 7&#x2f;25-26</name>
	<link>/events/dafanz-tracktime-4-cars-tt4c-pocono-north-5-30-31-raceway-track-time-389002</link>
	<longitude>-75.5118257104</longitude>
	<latitude>41.0522543554</latitude>
</event>
<event>
	<name>Lucas Oil School of Racing &#x40; NOLA Motorsports Park</name>
	<link>/events/lucas-oil-school-of-racing-nola-motorsports-park-driver-256819</link>
	<longitude>-90.1682300431</longitude>
	<latitude>29.9045523494</latitude>
</event>
<event>
	<name>Lucas Oil School of Racing &#x40; NOLA Motorsports Park</name>
	<link>/events/lucas-oil-school-of-racing-nola-motorsports-park-driver-556349</link>
	<longitude>-90.1682300431</longitude>
	<latitude>29.9045523494</latitude>
</event>
<event>
	<name>Lucas Oil School of Racing &#x40; NOLA Motorsports Park</name>
	<link>/events/lucas-oil-school-of-racing-nola-motorsports-park-driver-150674</link>
	<longitude>-90.1682300431</longitude>
	<latitude>29.9045523494</latitude>
</event>
<event>
	<name>NASA at Pittsburgh International Race Complex</name>
	<link>/events/nasa-mid-atlantic-pittsburgh-international-race-complex-hpde-3271</link>
	<longitude>-80.346326</longitude>
	<latitude>40.848183</latitude>
</event>
<event>
	<name>APEX HPDE at Eagles Canyon&#x21; FRIDAY JULY 31st</name>
	<link>/events/apex-hpde-at-eagles-canyon-friday-july-31st-raceway-driving-academy-870794</link>
	<longitude>-97.3913668247</longitude>
	<latitude>33.359665012</latitude>
</event>
<event>
	<name>AutoInterests &#x40; Summit Point  Raceway - Jefferson</name>
	<link>/events/autointerests-summit-point-raceway-jefferson-driver-school-720669</link>
	<longitude>-77.9394456956</longitude>
	<latitude>39.2403315275</latitude>
</event>
<event>
	<name>NASA at Pocono Raceway</name>
	<link>/events/nasa-northeast-pocono-raceway-hpde-3400</link>
	<longitude>-75.511279</longitude>
	<latitude>41.054344</latitude>
</event>
<event>
	<name>Hooked On Driving - California &#x40; Sonoma Raceway</name>
	<link>/events/hooked-on-driving-california-sonoma-raceway-driver-school-367398</link>
	<longitude>-122.45082545</longitude>
	<latitude>38.1576714123</latitude>
</event>
<event>
	<name>Kart Racing School</name>
	<link>/events/kart-racing-school-atlanta-motorsports-park-ks-688027</link>
	<longitude>-84.1187997985</longitude>
	<latitude>34.4211856918</latitude>
</event>
<event>
	<name>High Performance Driving Course</name>
	<link>/events/high-performance-driving-course-portland-intl-raceway-pro-drive-839633</link>
	<longitude>-122.689745467</longitude>
	<latitude>45.5927148127</latitude>
</event>
<event>
	<name>CGI Motorsports &#x40; GingerMan Raceway</name>
	<link>/events/cgi-motorsports-gingerman-raceway-driver-school-376367</link>
	<longitude>-86.1419154906</longitude>
	<latitude>42.4114824905</latitude>
</event>
<event>
	<name>BMW Auto Club Quebec &#x40; Mont Tremblant</name>
	<link>/events/bmw-auto-club-quebec-mont-tremblant-driver-school-922275</link>
	<longitude>-74.5836371533</longitude>
	<latitude>46.1224164733</latitude>
</event>
<event>
	<name>Daytona Drivers School - Driver Registration</name>
	<link>/events/daytona-drivers-school-driver-registration-intl-speedway-scca-central-046086</link>
	<longitude>-81.0703702594</longitude>
	<latitude>29.1844967318</latitude>
</event>
<event>
	<name>Chin Track Days &#x40; Michelin Raceway Road Atlanta</name>
	<link>/events/chin-track-days-michelin-raceway-road-atlanta-driver-school-944329</link>
	<longitude>-83.8143782673</longitude>
	<latitude>34.1483401251</latitude>
</event>
<event>
	<name>Aug 17 High Performance Driving Day</name>
	<link>/events/aug-17-high-performance-driving-day-mission-raceway-velocity-autosports-459195</link>
	<longitude>-122.305287779</longitude>
	<latitude>49.1344547645</latitude>
</event>
<event>
	<name>NASA at VIRginia International Raceway</name>
	<link>/events/nasa-mid-atlantic-virginia-international-raceway-hpde-3307</link>
	<longitude>-79.207046</longitude>
	<latitude>36.561576</latitude>
</event>
<event>
	<name>PCA - Metro New York &#x40; Watkins Glen International</name>
	<link>/events/pca-metro-new-york-watkins-glen-international-driver-school-563826</link>
	<longitude>-76.9300393591</longitude>
	<latitude>42.3430474102</latitude>
</event>
<event>
	<name>MSR Houston Competition License School</name>
	<link>/events/msr-houston-competition-license-school-431087</link>
	<longitude>-95.4221071742</longitude>
	<latitude>29.2784289084</latitude>
</event>
<event>
	<name>Racing School</name>
	<link>/events/racing-school-portland-intl-raceway-pro-drive-305226</link>
	<longitude>-122.689745467</longitude>
	<latitude>45.5927148127</latitude>
</event>
<event>
	<name>Chin Track Days &#x40; Barber Motorsports Park</name>
	<link>/events/chin-track-days-barber-motorsports-park-driver-school-535670</link>
	<longitude>-86.6209029966</longitude>
	<latitude>33.5322399866</latitude>
</event>
<event>
	<name>AutoInterests &#x40; Nelson Ledges</name>
	<link>/events/autointerests-nelson-ledges-driver-school-157981</link>
	<longitude>-81.0176138783</longitude>
	<latitude>41.3064842416</latitude>
</event>
<event>
	<name>RTR ADVANCED DE &#x40;Palmer August 2020</name>
	<link>/events/rtr-de-palmer-august-2020-motorsports-park-pca-riesentoter-039105</link>
	<longitude>-72.3021763861</longitude>
	<latitude>42.2079087024</latitude>
</event>
<event>
	<name>Rookie Fridays &#x28;8&#x2f;21&#x29;</name>
	<link>/events/rookie-fridays-8-21-pineview-run-190589</link>
	<longitude>-76.182270249</longitude>
	<latitude>42.8795621844</latitude>
</event>
<event>
	<name>THE LIST HPDE &#x40; Motorsport Ranch - Cresson</name>
	<link>/events/list-hpde-motorsport-ranch-cresson-driver-school-526363</link>
	<longitude>-97.6125283499</longitude>
	<latitude>32.5250363862</latitude>
</event>
<event>
	<name>Summit Point &#x28;main&#x29;  Advanced&#x2f;solo</name>
	<link>/events/summit-point-main-advanced-solo-circuit-pca-northern-new-jersey-drivers-587923</link>
	<longitude>-77.9761169812</longitude>
	<latitude>39.2431387353</latitude>
</event>
<event>
	<name>NASA at Bondurant - School&#x2f;Main Track</name>
	<link>/events/nasa-arizona-bondurant-school-main-track-club-race-3303</link>
	<longitude>0</longitude>
	<latitude>0</latitude>
</event>
<event>
	<name>RSR Waterford Hills Driver&#x27;s Ed August 21 &amp; 22nd</name>
	<link>/events/rsr-waterford-hills-drivers-ed-august-21-22nd-pca-rally-sport-038835</link>
	<longitude>-83.3938845013</longitude>
	<latitude>42.7048664361</latitude>
</event>
<event>
	<name>AutoInterests &#x40; Mid-Ohio Sports Car Course</name>
	<link>/events/autointerests-mid-ohio-sports-car-course-driver-school-854976</link>
	<longitude>-82.640910787</longitude>
	<latitude>40.690414839</latitude>
</event>
<event>
	<name>DafanZ TrackTime 4 Cars&#x28;TT4C&#x29; Pocono North 8&#x2f;23</name>
	<link>/events/dafanz-tracktime-4-cars-tt4c-pocono-north-8-23-raceway-track-time-564454</link>
	<longitude>-75.5118257104</longitude>
	<latitude>41.0522543554</latitude>
</event>
<event>
	<name>NASA at Sonoma Raceway</name>
	<link>/events/nasa-california-northern-sonoma-raceway-hpde-3320</link>
	<longitude>-122.454874</longitude>
	<latitude>38.159946</latitude>
</event>
<event>
	<name>Hooked On Driving - Pacific Northwest Region &#x40; Ridge Motorsports Park, Road Course</name>
	<link>/events/hooked-on-driving-pacific-northwest-ridge-motorsports-park-road-course-045290</link>
	<longitude>-123.107425195</longitude>
	<latitude>46.3453538478</latitude>
</event>
<event>
	<name>Just Track It &#x40; Michelin Raceway Road Atlanta</name>
	<link>/events/just-track-it-michelin-raceway-road-atlanta-driver-school-726323</link>
	<longitude>-83.8143782673</longitude>
	<latitude>34.1483401251</latitude>
</event>
<event>
	<name>Lucas Oil School of Racing &#x40; Autobahn Country Club</name>
	<link>/events/lucas-oil-school-of-racing-autobahn-country-club-driver-147519</link>
	<longitude>-88.1266386894</longitude>
	<latitude>41.4531523087</latitude>
</event>
<event>
	<name>Lucas Oil School of Racing &#x40; Autobahn Country Club</name>
	<link>/events/lucas-oil-school-of-racing-autobahn-country-club-driver-832781</link>
	<longitude>-88.1266386894</longitude>
	<latitude>41.4531523087</latitude>
</event>
<event>
	<name>Xtreme Xperience Pocono Raceway</name>
	<link>/events/xtreme-xperience-pocono-raceway-160008</link>
	<longitude>-75.5118257104</longitude>
	<latitude>41.0522543554</latitude>
</event>
<event>
	<name>Road America Track Day August 24, 2020 &#x23;310</name>
	<link>/events/road-america-track-day-august-event-502203</link>
	<longitude>-87.9868178869</longitude>
	<latitude>43.8045064016</latitude>
</event>
<event>
	<name>NASA at Autobahn Country Club</name>
	<link>/events/nasa-central-autobahn-country-club-hpde-3265</link>
	<longitude>-88.118872</longitude>
	<latitude>41.454908</latitude>
</event>
<event>
	<name>Trillium DE at Calabogie</name>
	<link>/events/trillium-de-at-calabogie-motorsports-park-bmw-cca-745150</link>
	<longitude>-76.6726710011</longitude>
	<latitude>45.3041222449</latitude>
</event>
<event>
	<name>MassTuning TrackFest &#x28;July 18-19, 2020&#x29;</name>
	<link>/events/masstuning-trackfest-july-18-19-2020-canaan-motor-club-141031</link>
	<longitude>-72.0001454211</longitude>
	<latitude>43.6498333528</latitude>
</event>
<event>
	<name>BMW Car Club of B.C. &#x40; Mission Raceway</name>
	<link>/events/bmw-car-club-of-b-c-mission-raceway-driver-school-449452</link>
	<longitude>-122.305287779</longitude>
	<latitude>49.1344547645</latitude>
</event>
<event>
	<name>Rookie Fridays &#x28;7&#x2f;17&#x29;</name>
	<link>/events/rookie-fridays-pineview-run-681812</link>
	<longitude>-76.182270249</longitude>
	<latitude>42.8795621844</latitude>
</event>
<event>
	<name>Edge Addicts &#x40; Circuit of the Americas</name>
	<link>/events/edge-addicts-circuit-of-americas-driver-school-218145</link>
	<longitude>-97.6406004274</longitude>
	<latitude>30.1329402149</latitude>
</event>
<event>
	<name>Streets of Willow Clock Wise</name>
	<link>/events/streets-of-willow-clock-wise-springs-intl-raceway-extreme-speed-track-events-242928</link>
	<longitude>-118.264001452</longitude>
	<latitude>34.8711448938</latitude>
</event>
<event>
	<name>High Performance Driving Course</name>
	<link>/events/high-performance-driving-course-portland-intl-raceway-pro-drive-543955</link>
	<longitude>-122.689745467</longitude>
	<latitude>45.5927148127</latitude>
</event>
<event>
	<name>Xtreme Xperience New Jersey Motorsports Park</name>
	<link>/events/xtreme-xperience-new-jersey-motorsports-park-533544</link>
	<longitude>-75.0574337156</longitude>
	<latitude>39.3549079508</latitude>
</event>
<event>
	<name>PCA - Coastal Empire &#x40; Roebling Road Raceway</name>
	<link>/events/pca-coastal-empire-roebling-road-raceway-driver-school-488177</link>
	<longitude>-81.3207581642</longitude>
	<latitude>32.1730050214</latitude>
</event>
<event>
	<name>BMW Auto Club Quebec &#x40; Mont Tremblant</name>
	<link>/events/bmw-auto-club-quebec-mont-tremblant-driver-school-393190</link>
	<longitude>-74.5836371533</longitude>
	<latitude>46.1224164733</latitude>
</event>
<event>
	<name>Hooked On Driving - California &#x40; Thunderhill Raceway Park</name>
	<link>/events/hooked-on-driving-california-thunderhill-raceway-park-driver-school-910469</link>
	<longitude>-122.333359856</longitude>
	<latitude>39.5364953601</latitude>
</event>
<event>
	<name>Edge Addicts &#x40; Motorsport Ranch - Cresson</name>
	<link>/events/edge-addicts-motorsport-ranch-cresson-driver-school-956272</link>
	<longitude>-97.6125283499</longitude>
	<latitude>32.5250363862</latitude>
</event>
<event>
	<name>Friday at the Track</name>
	<link>/events/friday-at-track-summit-point-circuit-172889</link>
	<longitude>-77.9761169812</longitude>
	<latitude>39.2431387353</latitude>
</event>
<event>
	<name>CGI Motorsports &#x40; GingerMan Raceway</name>
	<link>/events/cgi-motorsports-gingerman-raceway-driver-school-655208</link>
	<longitude>-86.1419154906</longitude>
	<latitude>42.4114824905</latitude>
</event>
<event>
	<name>Kart Racing School</name>
	<link>/events/kart-racing-school-atlanta-motorsports-park-ks-730628</link>
	<longitude>-84.1187997985</longitude>
	<latitude>34.4211856918</latitude>
</event>
<event>
	<name>Edge Addicts &#x40; Circuit of the Americas</name>
	<link>/events/edge-addicts-circuit-of-americas-driver-school-534440</link>
	<longitude>-97.6406004274</longitude>
	<latitude>30.1329402149</latitude>
</event>
<event>
	<name>Chin Track Days &#x40; NCM Motorsport Park</name>
	<link>/events/chin-track-days-ncm-motorsport-park-driver-school-873449</link>
	<longitude>-86.3728988279</longitude>
	<latitude>37.0036904617</latitude>
</event>
<event>
	<name>AROSC High Performance Driving School</name>
	<link>/events/arosc-high-performance-driving-school-streets-of-willow-springs-racing-121079</link>
	<longitude>-118.26539481</longitude>
	<latitude>34.8719781769</latitude>
</event>
<event>
	<name>Hooked On Driving - Pacific Northwest Region &#x40; Portland Int&#x27;l Raceway</name>
	<link>/events/hooked-on-driving-pacific-northwest-portland-intl-raceway-driver-school-789716</link>
	<longitude>-122.689745467</longitude>
	<latitude>45.5927148127</latitude>
</event>
<event>
	<name>Chin Track Days &#x40; Pittsburgh International Race Compl</name>
	<link>/events/chin-track-days-pittsburgh-international-race-compl-driver-school-646679</link>
	<longitude>-80.3430097545</longitude>
	<latitude>40.8468500766</latitude>
</event>
<event>
	<name>The Driver&#x27;s Edge &#x40; MSR Houston</name>
	<link>/events/drivers-edge-msr-houston-driver-school-074264</link>
	<longitude>-95.4221071742</longitude>
	<latitude>29.2784289084</latitude>
</event>
<event>
	<name>BMW CCA - Tarheel Chapter &#x40; Virginia International Raceway</name>
	<link>/events/bmw-cca-tarheel-virginia-international-raceway-driver-school-293752</link>
	<longitude>-79.2085494846</longitude>
	<latitude>36.5637033358</latitude>
</event>
<event>
	<name>Hooked On Driving - California &#x40; Buttonwillow Raceway</name>
	<link>/events/hooked-on-driving-california-buttonwillow-raceway-driver-school-209439</link>
	<longitude>-119.546492411</longitude>
	<latitude>35.4880305041</latitude>
</event>
<event>
	<name>Trillium&#x2f;Allegheny DE at PittRace</name>
	<link>/events/trillium-allegheny-de-at-pittrace-pittsburgh-international-race-compl-bmw-cca-us-671237</link>
	<longitude>-80.3430097545</longitude>
	<latitude>40.8468500766</latitude>
</event>
<event>
	<name>1010ths HPDE October 2020 Putnam Park</name>
	<link>/events/1010ths-hpde-october-2020-putnam-park-road-course-motorsports-132975</link>
	<longitude>-86.7481016095</longitude>
	<latitude>39.5854234202</latitude>
</event>
<event>
	<name>Watkins Glen 2 Garage Sign-Up</name>
	<link>/events/watkins-glen-2-garage-sign-up-international-pca-northern-new-jersey-629055</link>
	<longitude>-76.9300393591</longitude>
	<latitude>42.3430474102</latitude>
</event>
<event>
	<name>SCDA- Lime Rock Park- Track Event- October 12th</name>
	<link>/events/scda-lime-rock-park-track-event-october-12th-sports-car-driving-association-577416</link>
	<longitude>-73.3804241992</longitude>
	<latitude>41.9323173996</latitude>
</event>
<event>
	<name>Kart Racing School</name>
	<link>/events/kart-racing-school-atlanta-motorsports-park-ks-751383</link>
	<longitude>-84.1187997985</longitude>
	<latitude>34.4211856918</latitude>
</event>
<event>
	<name>MassTuning TrackFest &#x28;September 13, 2020&#x29;</name>
	<link>/events/masstuning-trackfest-september-13-2020-thompson-speedway-motorsports-park-223853</link>
	<longitude>-71.8299234467</longitude>
	<latitude>41.9831203466</latitude>
</event>
<event>
	<name>Road America VSCDA Test Day September 17, 2020</name>
	<link>/events/road-america-vscda-test-day-september-17-2020-track-378189</link>
	<longitude>-87.9868178869</longitude>
	<latitude>43.8045064016</latitude>
</event>
<event>
	<name>Sept 21 Women in Motorsports Group</name>
	<link>/events/sept-21-women-in-motorsports-group-mission-raceway-velocity-autosports-537536</link>
	<longitude>-122.305287779</longitude>
	<latitude>49.1344547645</latitude>
</event>
<event>
	<name>Lightning 2 at NJMP</name>
	<link>/events/lightning-2-at-njmp-raceway-pca-northern-new-jersey-drivers-education-999391</link>
	<longitude>-75.0574678665</longitude>
	<latitude>39.3549250263</latitude>
</event>
<event>
	<name>Lucas Oil School of Racing &#x40; Homestead Miami Speedway</name>
	<link>/events/lucas-oil-school-of-racing-homestead-miami-speedway-driver-855445</link>
	<longitude>-80.4111887028</longitude>
	<latitude>25.45491121</latitude>
</event>
<event>
	<name>Bertil Roos Data Analysis Clinic South Template</name>
	<link>/events/bertil-roos-data-analysis-clinic-south-template-palm-beach-international-867208</link>
	<longitude>-80.3037566574</longitude>
	<latitude>26.9217421452</latitude>
</event>
<event>
	<name>ACNW Belohnung &#x27;20</name>
	<link>/events/acnw-belohnung-20-oregon-raceway-park-audi-club-na-northwest-658774</link>
	<longitude>-120.725902156</longitude>
	<latitude>45.3594843432</latitude>
</event>
<event>
	<name>NASA at Sonoma Raceway</name>
	<link>/events/nasa-california-northern-sonoma-raceway-hpde-3321</link>
	<longitude>-122.454874</longitude>
	<latitude>38.159946</latitude>
</event>
<event>
	<name>PCA-Milwaukee Region DE 2020</name>
	<link>/events/pca-milwaukee-de-2020-road-america-884783</link>
	<longitude>-88.0000138124</longitude>
	<latitude>43.8001009296</latitude>
</event>
<event>
	<name>High Performance Driving Course</name>
	<link>/events/high-performance-driving-course-portland-intl-raceway-pro-drive-874238</link>
	<longitude>-122.689745467</longitude>
	<latitude>45.5927148127</latitude>
</event>
<event>
	<name>The Driver&#x27;s Edge &#x40; Eagles Canyon Raceway</name>
	<link>/events/drivers-edge-eagles-canyon-raceway-driver-school-889523</link>
	<longitude>-97.3913668247</longitude>
	<latitude>33.359665012</latitude>
</event>
<event>
	<name>Hooked On Driving - California &#x40; Sonoma Raceway</name>
	<link>/events/hooked-on-driving-california-sonoma-raceway-driver-school-349438</link>
	<longitude>-122.45082545</longitude>
	<latitude>38.1576714123</latitude>
</event>
<event>
	<name>Evasive &amp; Security Driving Course</name>
	<link>/events/evasive-security-driving-course-bsr-training-center-147608</link>
	<longitude>-77.9755090944</longitude>
	<latitude>39.2417863578</latitude>
</event>
<event>
	<name>Chin Track Days &#x40; Sebring Int&#x27;l Raceway</name>
	<link>/events/chin-track-days-sebring-intl-raceway-driver-school-354823</link>
	<longitude>-81.3502645814</longitude>
	<latitude>27.459575146</latitude>
</event>
<event>
	<name>Lucas Oil School of Racing &#x40; Sebring Int&#x27;l Raceway</name>
	<link>/events/lucas-oil-school-of-racing-sebring-intl-raceway-driver-002810</link>
	<longitude>-81.3502645814</longitude>
	<latitude>27.459575146</latitude>
</event>
<event>
	<name>Edge Addicts &#x40; Motorsport Ranch - Cresson</name>
	<link>/events/edge-addicts-motorsport-ranch-cresson-driver-school-544260</link>
	<longitude>-97.6125283499</longitude>
	<latitude>32.5250363862</latitude>
</event>
<event>
	<name>Chin Track Days &#x40; Michelin Raceway Road Atlanta</name>
	<link>/events/chin-track-days-michelin-raceway-road-atlanta-driver-school-806700</link>
	<longitude>-83.8143782673</longitude>
	<latitude>34.1483401251</latitude>
</event>
<event>
	<name>CRMC 20th Annual Performance Driving School</name>
	<link>/events/crmc-20th-annual-performance-driving-school-carolina-motorsports-park-133711</link>
	<longitude>-80.5974001501</longitude>
	<latitude>34.4906282251</latitude>
</event>
<event>
	<name>CCCR Willow Springs Big Willow Raceway</name>
	<link>/events/cccr-first-annual-laguna-seca-de-willow-springs-intl-raceway-pca-685245</link>
	<longitude>-118.264001452</longitude>
	<latitude>34.8711448938</latitude>
</event>
<event>
	<name>Race School Academy </name>
	<link>/events/race-school-academy-calabogie-motorsports-park-348816</link>
	<longitude>-76.6726710011</longitude>
	<latitude>45.3041222449</latitude>
</event>
<event>
	<name>Putnam Park RaceCraft1 10&#x2f;10ths Package</name>
	<link>/events/putnam-park-racecraft1-10-10ths-package-road-course-280019</link>
	<longitude>-86.7481016095</longitude>
	<latitude>39.5854234202</latitude>
</event>
<event>
	<name>Bertil Roos 1&#x2f;2 Day &amp; 1 Day Road Racing Adventure</name>
	<link>/events/bertil-roos-1-2-day-road-racing-adventure-palm-beach-international-315500</link>
	<longitude>-80.3037566574</longitude>
	<latitude>26.9217421452</latitude>
</event>
<event>
	<name>NASA at National Corvette Museum</name>
	<link>/events/nasa-mid-south-national-corvette-museum-hpde-3296</link>
	<longitude>-86.374602</longitude>
	<latitude>37.004285</latitude>
</event>
<event>
	<name>Edge Addicts &#x40; Motorsport Ranch - Cresson</name>
	<link>/events/edge-addicts-motorsport-ranch-cresson-driver-school-822551</link>
	<longitude>-97.6125283499</longitude>
	<latitude>32.5250363862</latitude>
</event>
<event>
	<name>SCDA- Lime Rock Park- Track Event- October 24th</name>
	<link>/events/scda-lime-rock-park-track-event-october-24th-sports-car-driving-association-096829</link>
	<longitude>-73.3804241992</longitude>
	<latitude>41.9323173996</latitude>
</event>
<event>
	<name>Fall 2020 &#x2f;&#x2f;&#x2f;M Club Day &#x40; BMW Performance Center</name>
	<link>/events/fall-2020-m-club-day-bmw-performance-center-cca-national-capital-driving-schools-697819</link>
	<longitude>-82.1772365651</longitude>
	<latitude>34.9060881416</latitude>
</event>
<event>
	<name>PCA - Maverick &#x40; Eagles Canyon Raceway</name>
	<link>/events/pca-maverick-eagles-canyon-raceway-driver-school-158708</link>
	<longitude>-97.3913668247</longitude>
	<latitude>33.359665012</latitude>
</event>
<event>
	<name>NCC October 2020 Summit Point, Main Circuit HPDE</name>
	<link>/events/ncc-october-2020-summit-point-main-circuit-hpde-bmw-cca-national-capital-492171</link>
	<longitude>-77.9761169812</longitude>
	<latitude>39.2431387353</latitude>
</event>
<event>
	<name>Road America Track Day October 15, 2020 &#x23;312</name>
	<link>/events/road-america-track-day-october-event-572913</link>
	<longitude>-87.9868178869</longitude>
	<latitude>43.8045064016</latitude>
</event>
<event>
	<name>MVP Track Time &#x40; Heartland Motorsports Park</name>
	<link>/events/mvp-track-time-heartland-motorsports-park-driver-school-991314</link>
	<longitude>-95.6761628905</longitude>
	<latitude>38.9302136185</latitude>
</event>
<event>
	<name>Lucas Oil School of Racing &#x40; Sebring Int&#x27;l Raceway</name>
	<link>/events/lucas-oil-school-of-racing-sebring-intl-raceway-driver-051021</link>
	<longitude>-81.3502645814</longitude>
	<latitude>27.459575146</latitude>
</event>
<event>
	<name>Bertil Roos AM Practice Session</name>
	<link>/events/bertil-roos-am-practice-session-palm-beach-international-raceway-racing-school-108513</link>
	<longitude>-80.3037566574</longitude>
	<latitude>26.9217421452</latitude>
</event>
<event>
	<name>Audi Club NJMP 2020&#x3a; Lightning &amp; Thunderbolt</name>
	<link>/events/audi-club-njmp-2020-thunderbolt-lightning-new-jersey-motorsports-park-na-989345</link>
	<longitude>-75.0574678665</longitude>
	<latitude>39.3549250263</latitude>
</event>
<event>
	<name>Watkins Glen HPDE and Time Trial</name>
	<link>/events/watkins-glen-hpde-time-trial-international-com-sports-car-club-336031</link>
	<longitude>-76.9300393591</longitude>
	<latitude>42.3430474102</latitude>
</event>
<event>
	<name>Lucas Oil School of Racing &#x40; Sebring Int&#x27;l Raceway</name>
	<link>/events/lucas-oil-school-of-racing-sebring-intl-raceway-driver-597969</link>
	<longitude>-81.3502645814</longitude>
	<latitude>27.459575146</latitude>
</event>
<event>
	<name>AutoInterests &#x40; Mid-Ohio Sports Car Course</name>
	<link>/events/autointerests-mid-ohio-sports-car-course-driver-school-314691</link>
	<longitude>-82.640910787</longitude>
	<latitude>40.690414839</latitude>
</event>
<event>
	<name>Chin Track Days &#x40; Circuit of the Americas</name>
	<link>/events/chin-track-days-circuit-of-americas-driver-school-747636</link>
	<longitude>-97.6406004274</longitude>
	<latitude>30.1329402149</latitude>
</event>
<event>
	<name>Porsche St. Louis Fall 2020 HPDE</name>
	<link>/events/porsche-st-louis-fall-2020-hpde-world-wide-technology-raceway-pca-837804</link>
	<longitude>-90.1353563427</longitude>
	<latitude>38.6507530136</latitude>
</event>
<event>
	<name>Motorsports Enthusiasts HPDE &amp; 86 Cup Event</name>
	<link>/events/motorsports-enthusiasts-hpde-86-cup-new-jersey-park-652250</link>
	<longitude>-75.0574337156</longitude>
	<latitude>39.3549079508</latitude>
</event>
<event>
	<name>RTR DE &#x40;Pocono Full&#x2f;Double Infield September 2020</name>
	<link>/events/rtr-de-pocono-full-double-infield-september-2020-raceway-pca-riesentoter-908842</link>
	<longitude>-75.5118257104</longitude>
	<latitude>41.0522543554</latitude>
</event>
<event>
	<name>Xtreme Xperience Pacific Raceways</name>
	<link>/events/xtreme-xperience-pacific-raceways-507575</link>
	<longitude>-122.137838861</longitude>
	<latitude>47.3204999553</latitude>
</event>
<event>
	<name>1010ths HPDE September 2020 Putnam Park</name>
	<link>/events/1010ths-hpde-september-2020-putnam-park-road-course-motorsports-111857</link>
	<longitude>-86.7481016095</longitude>
	<latitude>39.5854234202</latitude>
</event>
<event>
	<name>Chin Track Days &#x40; Circuit of the Americas</name>
	<link>/events/chin-track-days-circuit-of-americas-driver-school-400209</link>
	<longitude>-97.6406004274</longitude>
	<latitude>30.1329402149</latitude>
</event>
<event>
	<name>Lucas Oil School of Racing &#x40; Sebring Int&#x27;l Raceway</name>
	<link>/events/lucas-oil-school-of-racing-sebring-intl-raceway-driver-950735</link>
	<longitude>-81.3502645814</longitude>
	<latitude>27.459575146</latitude>
</event>
<event>
	<name>Putnam Park RaceCraft1 10&#x2f;10ths Package</name>
	<link>/events/putnam-park-racecraft1-10-10ths-package-road-course-493136</link>
	<longitude>-86.7481016095</longitude>
	<latitude>39.5854234202</latitude>
</event>
<event>
	<name>SCDA- NJMP Lightning- HPDE Track Day- Sept. 21</name>
	<link>/events/scda-njmp-sept-21-lightning-raceway-at-sports-car-driving-association-367377</link>
	<longitude>-75.0574678665</longitude>
	<latitude>39.3549250263</latitude>
</event>
<event>
	<name>Performance Driving Group &#x40; Sebring Int&#x27;l Raceway</name>
	<link>/events/performance-driving-group-sebring-intl-raceway-driver-school-070166</link>
	<longitude>-81.3502645814</longitude>
	<latitude>27.459575146</latitude>
</event>
<event>
	<name>NHMS-2 HPDE and Time Trial</name>
	<link>/events/nhms-2-hpde-time-trial-new-hampshire-motor-speedway-com-sports-car-club-134748</link>
	<longitude>-71.4636408921</longitude>
	<latitude>43.3600523321</latitude>
</event>
<event>
	<name>DafanZ TrackTime 4 Cars&#x28;TT4C&#x29; Pocono E &amp; N 9&#x2f;26-27</name>
	<link>/events/dafanz-tracktime-4-cars-tt4c-pocono-e-n-9-26-27-raceway-track-time-101536</link>
	<longitude>-75.5118257104</longitude>
	<latitude>41.0522543554</latitude>
</event>
<event>
	<name>Lucas Oil School of Racing &#x40; Homestead Miami Speedway</name>
	<link>/events/lucas-oil-school-of-racing-homestead-miami-speedway-driver-277961</link>
	<longitude>-80.4111887028</longitude>
	<latitude>25.45491121</latitude>
</event>
<event>
	<name>Chin Track Days &#x40; Michelin Raceway Road Atlanta</name>
	<link>/events/chin-track-days-michelin-raceway-road-atlanta-driver-school-628767</link>
	<longitude>-83.8143782673</longitude>
	<latitude>34.1483401251</latitude>
</event>
<event>
	<name>Road America Champ Car-Friday Test Day 10&#x2f;23&#x2f;20</name>
	<link>/events/road-america-champ-car-friday-test-day-10-23-20-track-676588</link>
	<longitude>-87.9868178869</longitude>
	<latitude>43.8045064016</latitude>
</event>
<event>
	<name>PCA - Metro New York &#x40; NJMP Lightning</name>
	<link>/events/pca-metro-new-york-njmp-lightning-driver-school-331756</link>
	<longitude>-75.0574337156</longitude>
	<latitude>39.3549079508</latitude>
</event>
<event>
	<name>2020 THSCC Jessi Culbertson Memorial HPDE</name>
	<link>/events/2020-thscc-jessi-culbertson-memorial-hpde-virginia-international-raceway-029138</link>
	<longitude>-79.2085494846</longitude>
	<latitude>36.5637033358</latitude>
</event>
<event>
	<name>Chin Track Days &#x40; Motorsport Ranch - Cresson</name>
	<link>/events/chin-track-days-motorsport-ranch-cresson-driver-school-008980</link>
	<longitude>-97.6125283499</longitude>
	<latitude>32.5250363862</latitude>
</event>
<event>
	<name>Kart Racing School</name>
	<link>/events/kart-racing-school-atlanta-motorsports-park-ks-005943</link>
	<longitude>-84.1187997985</longitude>
	<latitude>34.4211856918</latitude>
</event>
<event>
	<name>USA 7s Event - October 9-10</name>
	<link>/events/usa-7s-event-october-9-10-thunderbolt-raceway-new-jersey-motorsports-park-220992</link>
	<longitude>-75.0574337156</longitude>
	<latitude>39.3549079508</latitude>
</event>
<event>
	<name>Xtreme Xperience Pikes Peak International Raceway</name>
	<link>/events/xtreme-xperience-pikes-peak-international-raceway-intl-542333</link>
	<longitude>-104.67891229</longitude>
	<latitude>38.5906644244</latitude>
</event>
<event>
	<name>Evasive &amp; Security Driving Course</name>
	<link>/events/evasive-security-driving-course-bsr-training-center-908952</link>
	<longitude>-77.9755090944</longitude>
	<latitude>39.2417863578</latitude>
</event>
<event>
	<name>BMW Auto Club Quebec &#x40; Mont Tremblant</name>
	<link>/events/bmw-auto-club-quebec-mont-tremblant-driver-school-251761</link>
	<longitude>-74.5836371533</longitude>
	<latitude>46.1224164733</latitude>
</event>
<event>
	<name>Hooked On Driving - California &#x40; Thunderhill Raceway Park</name>
	<link>/events/hooked-on-driving-california-thunderhill-raceway-park-driver-school-489841</link>
	<longitude>-122.333359856</longitude>
	<latitude>39.5364953601</latitude>
</event>
<event>
	<name>Kart Racing School</name>
	<link>/events/kart-racing-school-atlanta-motorsports-park-ks-236008</link>
	<longitude>-84.1187997985</longitude>
	<latitude>34.4211856918</latitude>
</event>
<event>
	<name>SCDA- VIRginia Int&#x27;l Raceway- HPDE- 10&#x2f;5-6</name>
	<link>/events/scda-virginia-intl-raceway-hpde-10-5-6-international-sports-car-driving-098206</link>
	<longitude>-79.2085494846</longitude>
	<latitude>36.5637033358</latitude>
</event>
<event>
	<name>MBCA&#x7c;GWS 2020 Shenandoah Circuit Track Event</name>
	<link>/events/mbca-gws-2020-shenandoah-circuit-track-event-summit-point-raceway-greater-767659</link>
	<longitude>-77.9395959597</longitude>
	<latitude>39.2403281125</latitude>
</event>
<event>
	<name>MassTuning TrackFest &#x28;September 26-27, 2020&#x29;</name>
	<link>/events/masstuning-trackfest-september-26-27-2020-canaan-motor-club-287516</link>
	<longitude>-72.0001454211</longitude>
	<latitude>43.6498333528</latitude>
</event>
<event>
	<name>SCDA- Thompson Speedway- Track Event- September 26</name>
	<link>/events/scda-thompson-speedway-track-event-september-26-motorsports-park-sports-199959</link>
	<longitude>-71.8299234467</longitude>
	<latitude>41.9831203466</latitude>
</event>
<event>
	<name>SCDA- Watkins Glen- 2 Day Track Event- JULY 13-14</name>
	<link>/events/scda-watkins-glen-2-day-track-event-july-13-14-international-sports-car-996553</link>
	<longitude>-76.9300393591</longitude>
	<latitude>42.3430474102</latitude>
</event>
<event>
	<name>1010ths HPDE July 2020 NCM</name>
	<link>/events/1010ths-hpde-july-2020-ncm-motorsport-park-motorsports-211959</link>
	<longitude>-86.3728988279</longitude>
	<latitude>37.0036904617</latitude>
</event>
<event>
	<name>PCA Riesentoter Region - RSI Workers</name>
	<link>/events/pca-riesentoter-rsi-workers-watkins-glen-international-race-services-962312</link>
	<longitude>-76.9300393591</longitude>
	<latitude>42.3430474102</latitude>
</event>
<event>
	<name>Friday at the Track on Saturday&#x21;</name>
	<link>/events/friday-at-track-summit-point-raceway-shenandoah-520082</link>
	<longitude>-77.9395959597</longitude>
	<latitude>39.2403281125</latitude>
</event>
<event>
	<name>Schattenbaum NJMP T&#x27;bolt&#x2f;Lightning-Oct</name>
	<link>/events/schattenbaum-njmp-t-bolt-lightning-oct-thunderbolt-at-pca-332507</link>
	<longitude>-75.037988167</longitude>
	<latitude>39.3571584982</latitude>
</event>
<event>
	<name>Motorsports Enthusiasts HPDE</name>
	<link>/events/motorsports-enthusiasts-hpde-njmp-thunderbolt-410764</link>
	<longitude>-75.0574337156</longitude>
	<latitude>39.3549079508</latitude>
</event>
<event>
	<name>St. Louis Region SCCA PDE Track Event &#x23;7</name>
	<link>/events/st-louis-scca-pde-track-event-7-circuit-of-old-pdx-967167</link>
	<longitude>-90.1371458522</longitude>
	<latitude>38.659468335</latitude>
</event>
<event>
	<name>Xtreme Xperience NHMS Event &#x23;16</name>
	<link>/events/xtreme-xperience-nhms-event-16-new-hampshire-motor-speedway-233522</link>
	<longitude>-71.4636408921</longitude>
	<latitude>43.3600523321</latitude>
</event>
<event>
	<name>Summit Point Driver School </name>
	<link>/events/summit-point-driver-school-circuit-bmw-cca-new-jersey-051758</link>
	<longitude>-77.9761169812</longitude>
	<latitude>39.2431387353</latitude>
</event>
<event>
	<name>FSR Fall 2020 Drivers Ed At VIR Full Course</name>
	<link>/events/fsr-fall-2020-drivers-ed-at-vir-full-course-virginia-international-915849</link>
	<longitude>-79.2085494846</longitude>
	<latitude>36.5637033358</latitude>
</event>
<event>
	<name>MassTuning TrackFest &#x28;October 10-11, 2020&#x29;</name>
	<link>/events/masstuning-trackfest-october-10-11-2020-new-york-safety-track-nyst-742356</link>
	<longitude>-74.7808247146</longitude>
	<latitude>42.4867238544</latitude>
</event>
<event>
	<name>Road America - 2020 OktoberFAST</name>
	<link>/events/road-america-2020-oktoberfast-bmw-cca-badger-bimmers-384533</link>
	<longitude>-88.0000138124</longitude>
	<latitude>43.8001009296</latitude>
</event>
<event>
	<name>Nat&#x27;l Corvette Museum RaceCraft1 10&#x2f;10ths Package</name>
	<link>/events/natl-corvette-museum-racecraft1-10-10ths-package-ncm-motorsport-park-671031</link>
	<longitude>-86.3728988279</longitude>
	<latitude>37.0036904617</latitude>
</event>
<event>
	<name>Schneller Motorsport - Fall Foliage Spectacular </name>
	<link>/events/schneller-motorsport-fall-foliage-spectacular-club-motorsports-bmw-cca-996628</link>
	<longitude>-71.1786444189</longitude>
	<latitude>43.7923281743</latitude>
</event>
<event>
	<name>RTR DE &#x40;Summit Point October 2020</name>
	<link>/events/rtr-de-summit-point-october-2020-circuit-pca-riesentoter-012910</link>
	<longitude>-77.9761169812</longitude>
	<latitude>39.2431387353</latitude>
</event>
<event>
	<name>NCM November High Performance Drivers Introduction</name>
	<link>/events/ncm-november-high-performance-drivers-introduction-motorsport-park-motorsports-939846</link>
	<longitude>-86.3728988279</longitude>
	<latitude>37.0036904617</latitude>
</event>
<event>
	<name>MassTuning TrackFest &#x28;October 25, 2020&#x29;</name>
	<link>/events/masstuning-trackfest-october-25-2020-palmer-motorsports-park-707364</link>
	<longitude>-72.3021763861</longitude>
	<latitude>42.2079087024</latitude>
</event>
<event>
	<name>High Performance DR Education &#x28;HPDRE&#x29; 11&#x2f;8&#x2f;20</name>
	<link>/events/high-performance-dr-education-hpdre-11-8-20-dominion-raceway-780226</link>
	<longitude>-77.5090754761</longitude>
	<latitude>38.1323553161</latitude>
</event>
<event>
	<name>BimmerWorld BMW CCA Club Racing School</name>
	<link>/events/bimmerworld-bmw-cca-club-racing-school-watkins-glen-international-genesee-valley-878096</link>
	<longitude>-76.9300393591</longitude>
	<latitude>42.3430474102</latitude>
</event>
<event>
	<name>DelVal BMW CCA - Lightning DE sponsored by Otto&#x27;s</name>
	<link>/events/delval-bmw-cca-lightning-de-sponsored-by-ottos-njmp-delaware-valley-675334</link>
	<longitude>-75.0574337156</longitude>
	<latitude>39.3549079508</latitude>
</event>
<event>
	<name>PCA-PNWR Solo DE - The Ridge - July 23rd, 2020</name>
	<link>/events/pca-pnwr-solo-de-ridge-july-23rd-2020-motorsports-park-road-course-724715</link>
	<longitude>-123.107425195</longitude>
	<latitude>46.3453538478</latitude>
</event>
<event>
	<name>PCA-PNWR Solo DE - Pacific Rcwy - August 20, 2020</name>
	<link>/events/pca-pnwr-solo-de-pacific-rcwy-august-20-2020-raceways-northwest-559955</link>
	<longitude>-122.137838861</longitude>
	<latitude>47.3204999553</latitude>
</event>
<event>
	<name>ACNW QuattroFest &#x27;20</name>
	<link>/events/acnw-quattrofest-20-portland-intl-raceway-audi-club-na-northwest-250904</link>
	<longitude>-122.689745467</longitude>
	<latitude>45.5927148127</latitude>
</event>
<event>
	<name>SCDA- Lime Rock Park- Season Finale&#x21; Nov. 6th</name>
	<link>/events/scda-lime-rock-park-season-finale-nov-6th-sports-car-driving-association-273787</link>
	<longitude>-73.3804241992</longitude>
	<latitude>41.9323173996</latitude>
</event>
<event>
	<name>MassTuning TrackFest &#x28;November 7-8, 2020&#x29;</name>
	<link>/events/masstuning-trackfest-november-7-8-2020-canaan-motor-club-650777</link>
	<longitude>-72.0001454211</longitude>
	<latitude>43.6498333528</latitude>
</event>
<event>
	<name>Empire State Region Ferrari Club LRP HPDE</name>
	<link>/events/empire-ferrari-club-lrp-hpde-lime-rock-park-hpd-instructor-608452</link>
	<longitude>-73.3804241992</longitude>
	<latitude>41.9323173996</latitude>
</event>
<event>
	<name>NASA at Summit Point Motorsports Park</name>
	<link>/events/nasa-mid-atlantic-autocross-summit-point-motorsports-park-hpde-3228</link>
	<longitude>-77.977996</longitude>
	<latitude>39.240688</latitude>
</event>
<event>
	<name>High Performance DR Education &#x28;HPDRE&#x29; 7&#x2f;19&#x2f;20</name>
	<link>/events/high-performance-dr-education-hpdre-5-10-20-dominion-raceway-530510</link>
	<longitude>-77.5090754761</longitude>
	<latitude>38.1323553161</latitude>
</event>
<event>
	<name>BMWCCA PSR HPDE &#x40; PACIFIC August 21, 2020</name>
	<link>/events/bmwcca-psr-hpde-pacific-august-21-2020-raceways-bmw-cca-puget-sound-664757</link>
	<longitude>-122.137838861</longitude>
	<latitude>47.3204999553</latitude>
</event>
<event>
	<name>Bertil Roos 3 Day Road Racing School</name>
	<link>/events/bertil-roos-3-day-road-racing-school-palm-beach-international-raceway-591563</link>
	<longitude>-80.3037566574</longitude>
	<latitude>26.9217421452</latitude>
</event>
<event>
	<name>Kart Racing School</name>
	<link>/events/kart-racing-school-atlanta-motorsports-park-ks-489194</link>
	<longitude>-84.1187997985</longitude>
	<latitude>34.4211856918</latitude>
</event>
<event>
	<name>Bertil Roos 2 Day Advanced Road Racing School</name>
	<link>/events/bertil-roos-2-day-advanced-road-racing-school-palm-beach-international-raceway-997715</link>
	<longitude>-80.3037566574</longitude>
	<latitude>26.9217421452</latitude>
</event>
<event>
	<name>ACNW Strassenlage &#x27;20</name>
	<link>/events/acnw-strassenlage-20-ridge-motorsports-park-road-course-audi-club-na-northwest-492458</link>
	<longitude>-123.107425195</longitude>
	<latitude>46.3453538478</latitude>
</event>
<event>
	<name>Bertil Roos 3 Day Road Racing School</name>
	<link>/events/bertil-roos-3-day-road-racing-school-roebling-raceway-745493</link>
	<longitude>-81.3207581642</longitude>
	<latitude>32.1730050214</latitude>
</event>
<event>
	<name>Bimmerworld BMW CCA Club Race School at MSR</name>
	<link>/events/bimmerworld-bmw-cca-club-race-school-at-msr-motorsport-ranch-cresson-357708</link>
	<longitude>-97.6125283499</longitude>
	<latitude>32.5250363862</latitude>
</event>
<event>
	<name>No Tricks, just Treats- Sandlapper HPDE at CMP</name>
	<link>/events/no-tricks-just-treats-sandlapper-hpde-at-cmp-carolina-motorsports-park-bmw-cca-560559</link>
	<longitude>-80.5974001501</longitude>
	<latitude>34.4906282251</latitude>
</event>
<event>
	<name>VIR</name>
	<link>/events/vir-virginia-international-raceway-pca-northern-new-jersey-drivers-education-771428</link>
	<longitude>-79.2085494846</longitude>
	<latitude>36.5637033358</latitude>
</event>
<event>
	<name> BMW CCA Buckeye Chapter HPDE</name>
	<link>/events/bmw-cca-buckeye-hpde-mid-ohio-sports-car-course-driving-events-558363</link>
	<longitude>-82.640910787</longitude>
	<latitude>40.690414839</latitude>
</event>
<event>
	<name>Bertil Roos 2 Day Advanced Road Racing School</name>
	<link>/events/bertil-roos-2-day-advanced-road-racing-school-roebling-raceway-116649</link>
	<longitude>-81.3207581642</longitude>
	<latitude>32.1730050214</latitude>
</event>
<event>
	<name>SCDA- Lime Rock Park- Track Event- August 17th</name>
	<link>/events/scda-lime-rock-park-track-event-august-17th-sports-car-driving-association-784177</link>
	<longitude>-73.3804241992</longitude>
	<latitude>41.9323173996</latitude>
</event>
<event>
	<name>Motorsports Enthusiasts HPDE</name>
	<link>/events/motorsports-enthusiasts-hpde-njmp-thunderbolt-422512</link>
	<longitude>-75.0574337156</longitude>
	<latitude>39.3549079508</latitude>
</event>
<event>
	<name>SCDA- Thompson Speedway- Track Event- July 20th</name>
	<link>/events/scda-thompson-speedway-track-event-july-20th-motorsports-park-sports-car-334799</link>
	<longitude>-71.8299234467</longitude>
	<latitude>41.9831203466</latitude>
</event>
<event>
	<name>PCA-PNWR Solo-only DE - The Ridge - July 31, 2020</name>
	<link>/events/pca-pnwr-solo-only-de-ridge-july-31-2020-motorsports-park-road-course-663371</link>
	<longitude>-123.107425195</longitude>
	<latitude>46.3453538478</latitude>
</event>
<event>
	<name>Bertil Roos 1&#x2f;2 Day &amp; 1 Day Road Racing Adventure</name>
	<link>/events/bertil-roos-1-2-day-road-racing-adventure-palm-beach-international-584259</link>
	<longitude>-80.3037566574</longitude>
	<latitude>26.9217421452</latitude>
</event>
<event>
	<name>Bertil Roos 2 Day Grad Camp</name>
	<link>/events/bertil-roos-2-day-grad-camp-pocono-raceway-racing-school-875989</link>
	<longitude>-75.5118257104</longitude>
	<latitude>41.0522543554</latitude>
</event>
<event>
	<name>Xtreme Xperience NCM Motorsports Park Event &#x23;13</name>
	<link>/events/xtreme-xperience-ncm-motorsports-park-event-13-national-corvette-museum-687648</link>
	<longitude>-86.3741897337</longitude>
	<latitude>37.0039397636</latitude>
</event>
<event>
	<name>Bertil Roos AM Practice Session</name>
	<link>/events/bertil-roos-am-practice-session-palm-beach-international-raceway-racing-school-397534</link>
	<longitude>-80.3037566574</longitude>
	<latitude>26.9217421452</latitude>
</event>
<event>
	<name>Volunteer for Flying Solo on the Plains HPDE</name>
	<link>/events/volunteer-for-flying-solo-on-plains-hpde-high-raceway-pca-rocky-mountain-665011</link>
	<longitude>-103.89720397</longitude>
	<latitude>39.7355953743</latitude>
</event>
<event>
	<name>Xtreme Xperience Portland International Raceway</name>
	<link>/events/xtreme-xperience-portland-international-raceway-intl-331259</link>
	<longitude>-122.689745467</longitude>
	<latitude>45.5927148127</latitude>
</event>
<event>
	<name>Audi Club Wisconsin - Road America - 2020</name>
	<link>/events/audi-club-wisconsin-road-america-2020-na-398800</link>
	<longitude>-88.0000138124</longitude>
	<latitude>43.8001009296</latitude>
</event>
<event>
	<name>ARPCA - Pitt Race - Advanced Solo-only HPDE</name>
	<link>/events/arpca-pittrace-high-perf-driver-education-pittsburgh-international-race-488254</link>
	<longitude>-80.3430097545</longitude>
	<latitude>40.8468500766</latitude>
</event>
<event>
	<name>Evasive &amp; Security Driving Course</name>
	<link>/events/evasive-security-driving-course-bsr-training-center-034697</link>
	<longitude>-77.9755090944</longitude>
	<latitude>39.2417863578</latitude>
</event>
<event>
	<name>Blackhawk Farms Friday August 21, 2020</name>
	<link>/events/blackhawk-farms-friday-august-21-2020-raceway-bmw-cca-badger-bimmers-531038</link>
	<longitude>-89.1144206469</longitude>
	<latitude>42.4897496282</latitude>
</event>
<event>
	<name>Schattenbaum NJMP Tbolt-Light-July</name>
	<link>/events/schattenbaum-njmp-thunderbolt-july-raceway-pca-126879</link>
	<longitude>-75.037988167</longitude>
	<latitude>39.3571584982</latitude>
</event>
<event>
	<name>SCDA- Lime Rock Park- Track Event- July 27th</name>
	<link>/events/scda-lime-rock-park-track-event-july-27th-sports-car-driving-association-988075</link>
	<longitude>-73.3804241992</longitude>
	<latitude>41.9323173996</latitude>
</event>
<event>
	<name>Stacked On Track - Poconos Mega &amp; North Course</name>
	<link>/events/stacked-on-track-poconos-mega-course-pocono-raceway-722825</link>
	<longitude>-75.5118257104</longitude>
	<latitude>41.0522543554</latitude>
</event>
<event>
	<name>Rezoom Motorsports  -  Barber Full Course DE</name>
	<link>/events/rezoom-motorsports-barber-full-course-de-park-054732</link>
	<longitude>-86.6209029966</longitude>
	<latitude>33.5322399866</latitude>
</event>
<event>
	<name>TRSS Coach&#x2f;Volunteer - 7&#x2f;25&#x2f;20 Oxford Valley Mall</name>
	<link>/events/trss-coach-volunteer-7-25-20-oxford-valley-mall-mid-atlantic-volunteers-151456</link>
	<longitude>-74.8806274387</longitude>
	<latitude>40.1838162932</latitude>
</event>
<event>
	<name>Hagerty Track Day Fueled by the SCCA</name>
	<link>/events/hagerty-track-day-fueled-by-scca-sebring-intl-raceway-170142</link>
	<longitude>-81.3502645814</longitude>
	<latitude>27.459575146</latitude>
</event>
<event>
	<name>SCDA- Palmer Motorsports Park- Track Event Aug. 24</name>
	<link>/events/scda-palmer-motorsports-park-track-event-aug-24-sports-car-driving-association-210652</link>
	<longitude>-72.3021763861</longitude>
	<latitude>42.2079087024</latitude>
</event>
<event>
	<name>PCA Northern New Jersey Region - RSI Workers</name>
	<link>/events/pca-northern-new-jersey-rsi-workers-watkins-glen-international-race-services-759493</link>
	<longitude>-76.9300393591</longitude>
	<latitude>42.3430474102</latitude>
</event>
<event>
	<name>SCDA- Thompson Speedway- Track Event- August 15th</name>
	<link>/events/scda-thompson-speedway-track-event-august-15th-motorsports-park-sports-208016</link>
	<longitude>-71.8299234467</longitude>
	<latitude>41.9831203466</latitude>
</event>
<event>
	<name>High Performance DR Education &#x28;HPDRE&#x29; 8&#x2f;23&#x2f;20</name>
	<link>/events/high-performance-dr-education-hpdre-8-23-20-dominion-raceway-701235</link>
	<longitude>-77.5090754761</longitude>
	<latitude>38.1323553161</latitude>
</event>
<event>
	<name>Potomac&#x27;s PorscheFest DE</name>
	<link>/events/potomacs-porschefest-de-summit-point-circuit-pca-potomac-founders-091088</link>
	<longitude>-77.9761169812</longitude>
	<latitude>39.2431387353</latitude>
</event>
<event>
	<name>Watkins Glen 1 &#x28;advanced&#x2f;solo drivers&#x29;</name>
	<link>/events/watkins-glen-1-advanced-solo-drivers-international-pca-northern-new-693023</link>
	<longitude>-76.9300393591</longitude>
	<latitude>42.3430474102</latitude>
</event>
<event>
	<name>MassTuning TrackFest &#x28;August 22-23, 2020&#x29;</name>
	<link>/events/masstuning-trackfest-august-22-23-2020-canaan-motor-club-888651</link>
	<longitude>-72.0001454211</longitude>
	<latitude>43.6498333528</latitude>
</event>
<event>
	<name>Flying Solo on the Plains HPDE SOLOED DRIVERS ONLY</name>
	<link>/events/flying-solo-on-plains-hpde-soloed-drivers-only-high-raceway-pca-rocky-mountain-161808</link>
	<longitude>-103.89720397</longitude>
	<latitude>39.7355953743</latitude>
</event>
<event>
	<name>Xtreme Xperience Autobahn Country Club July</name>
	<link>/events/xtreme-xperience-autobahn-country-club-july-129382</link>
	<longitude>-88.1266386894</longitude>
	<latitude>41.4531523087</latitude>
</event>
<event>
	<name>Evasive &amp; Security Driving Course</name>
	<link>/events/evasive-security-driving-course-bsr-training-center-410020</link>
	<longitude>-77.9755090944</longitude>
	<latitude>39.2417863578</latitude>
</event>
<event>
	<name>Motorsports Enthusiasts HPDE</name>
	<link>/events/motorsports-enthusiasts-hpde-njmp-lightning-482048</link>
	<longitude>-75.0574337156</longitude>
	<latitude>39.3549079508</latitude>
</event>
<event>
	<name>Schattenbaum NJMP Thunderbolt-November</name>
	<link>/events/schattenbaum-njmp-thunderbolt-november-pca-076261</link>
	<longitude>-75.0574337156</longitude>
	<latitude>39.3549079508</latitude>
</event>
<event>
	<name>Edge Addicts &#x40; Circuit of the Americas</name>
	<link>/events/edge-addicts-circuit-of-americas-driver-school-233357</link>
	<longitude>-97.6406004274</longitude>
	<latitude>30.1329402149</latitude>
</event>
<event>
	<name>The Driver&#x27;s Edge &#x40; Eagles Canyon Raceway</name>
	<link>/events/drivers-edge-eagles-canyon-raceway-driver-school-599563</link>
	<longitude>-97.3913668247</longitude>
	<latitude>33.359665012</latitude>
</event>
<event>
	<name>PCA - Coastal Empire &#x40; Roebling Road Raceway</name>
	<link>/events/pca-coastal-empire-roebling-road-raceway-driver-school-932618</link>
	<longitude>-81.3207581642</longitude>
	<latitude>32.1730050214</latitude>
</event>
<event>
	<name>The Driver&#x27;s Edge &#x40; Motorsport Ranch - Cresson</name>
	<link>/events/drivers-edge-motorsport-ranch-cresson-driver-school-070902</link>
	<longitude>-97.6125283499</longitude>
	<latitude>32.5250363862</latitude>
</event>
<event>
	<name>Hooked On Driving - California &#x40; Sonoma Raceway</name>
	<link>/events/hooked-on-driving-california-sonoma-raceway-driver-school-186594</link>
	<longitude>-122.45082545</longitude>
	<latitude>38.1576714123</latitude>
</event>
<event>
	<name>Audi Club PCC VIR Fall Finale </name>
	<link>/events/audi-club-pcc-vir-fall-finale-virginia-international-raceway-na-potomac-794134</link>
	<longitude>-79.2085494846</longitude>
	<latitude>36.5637033358</latitude>
</event>
<event>
	<name>PCA - Metro New York &#x40; Lime Rock Park</name>
	<link>/events/pca-metro-new-york-lime-rock-park-driver-school-249514</link>
	<longitude>-73.3804241992</longitude>
	<latitude>41.9323173996</latitude>
</event>
<event>
	<name>Road America Test &amp; Tune Day September 11, 2020</name>
	<link>/events/road-america-test-tune-day-september-16-2020-644640</link>
	<longitude>-87.9868178869</longitude>
	<latitude>43.8045064016</latitude>
</event>
<event>
	<name>Chin Track Days &#x40; Summit Point - Summit Point Circuit</name>
	<link>/events/chin-track-days-summit-point-circuit-driver-school-593437</link>
	<longitude>-77.9761169812</longitude>
	<latitude>39.2431387353</latitude>
</event>
<event>
	<name>Eagles Canyon Raceway &#x40; Eagles Canyon Raceway</name>
	<link>/events/eagles-canyon-raceway-driver-school-349549</link>
	<longitude>-97.3913668247</longitude>
	<latitude>33.359665012</latitude>
</event>
<event>
	<name>Hooked On Driving - California &#x40; WeatherTech Raceway Laguna Seca</name>
	<link>/events/hooked-on-driving-california-weathertech-raceway-laguna-seca-driver-school-301992</link>
	<longitude>-121.756400117</longitude>
	<latitude>36.5832991486</latitude>
</event>
<event>
	<name>Pitt Race Full Track PDE Group 1 and 2 Instructed</name>
	<link>/events/pitt-race-full-track-pde-group-1-2-instructed-pittsburgh-international-compl-164617</link>
	<longitude>-80.3430097545</longitude>
	<latitude>40.8468500766</latitude>
</event>
<event>
	<name>GVC Advanced HPDE, Time Trial, Race School</name>
	<link>/events/gvc-advanced-hpde-time-trial-race-school-watkins-glen-international-bmw-453672</link>
	<longitude>-76.9300393591</longitude>
	<latitude>42.3430474102</latitude>
</event>
<event>
	<name>PCA Diablo DE Event - Laguna Seca </name>
	<link>/events/pca-diablo-de-event-laguna-seca-weathertech-raceway-523970</link>
	<longitude>-121.756400117</longitude>
	<latitude>36.5832991486</latitude>
</event>
<event>
	<name>Hooked On Driving - California &#x40; Sonoma Raceway</name>
	<link>/events/hooked-on-driving-california-sonoma-raceway-driver-school-640719</link>
	<longitude>-122.45082545</longitude>
	<latitude>38.1576714123</latitude>
</event>
<event>
	<name>Just Track It &#x40; Michelin Raceway Road Atlanta</name>
	<link>/events/just-track-it-michelin-raceway-road-atlanta-driver-school-159848</link>
	<longitude>-83.8143782673</longitude>
	<latitude>34.1483401251</latitude>
</event>
<event>
	<name>NASA at Lime Rock Park &#x28;Main Track&#x29;</name>
	<link>/events/nasa-northeast-lime-rock-park-main-track-hpde-3399</link>
	<longitude>-73.381392</longitude>
	<latitude>41.92835</latitude>
</event>
<event>
	<name>BMW Auto Club Quebec &#x40; Mont Tremblant</name>
	<link>/events/bmw-auto-club-quebec-mont-tremblant-driver-school-789910</link>
	<longitude>-74.5836371533</longitude>
	<latitude>46.1224164733</latitude>
</event>
<event>
	<name>NASA at Pocono Raceway</name>
	<link>/events/nasa-northeast-pocono-raceway-hpde-3281</link>
	<longitude>-75.511279</longitude>
	<latitude>41.054344</latitude>
</event>
<event>
	<name>Lucas Oil School of Racing &#x40; NJMP Thunderbolt</name>
	<link>/events/lucas-oil-school-of-racing-njmp-thunderbolt-driver-478390</link>
	<longitude>-75.0574337156</longitude>
	<latitude>39.3549079508</latitude>
</event>
<event>
	<name>Lucas Oil School of Racing &#x40; NJMP Thunderbolt</name>
	<link>/events/lucas-oil-school-of-racing-njmp-thunderbolt-driver-849091</link>
	<longitude>-75.0574337156</longitude>
	<latitude>39.3549079508</latitude>
</event>
<event>
	<name>The Driver&#x27;s Edge &#x40; Motorsport Ranch - Cresson</name>
	<link>/events/drivers-edge-motorsport-ranch-cresson-driver-school-150028</link>
	<longitude>-97.6125283499</longitude>
	<latitude>32.5250363862</latitude>
</event>
<event>
	<name>Just Track It &#x40; Barber Motorsports Park</name>
	<link>/events/just-track-it-barber-motorsports-park-driver-school-055805</link>
	<longitude>-86.6209029966</longitude>
	<latitude>33.5322399866</latitude>
</event>
<event>
	<name>Lucas Oil School of Racing &#x40; NJMP Thunderbolt</name>
	<link>/events/lucas-oil-school-of-racing-njmp-thunderbolt-driver-532072</link>
	<longitude>-75.0574337156</longitude>
	<latitude>39.3549079508</latitude>
</event>
<event>
	<name>Just Track It &#x40; Michelin Raceway Road Atlanta</name>
	<link>/events/just-track-it-michelin-raceway-road-atlanta-driver-school-257794</link>
	<longitude>-83.8143782673</longitude>
	<latitude>34.1483401251</latitude>
</event>
<event>
	<name>Lexus Performance Driving School &#x40; WeatherTech Raceway Laguna Seca</name>
	<link>/events/apex-performance-weathertech-raceway-laguna-seca-driver-school-372092</link>
	<longitude>-121.756400117</longitude>
	<latitude>36.5832991486</latitude>
</event>
<event>
	<name>NASA at Memphis International Raceway</name>
	<link>/events/nasa-mid-south-memphis-international-raceway-hpde-3357</link>
	<longitude>-89.947386</longitude>
	<latitude>35.282902</latitude>
</event>
<event>
	<name>Performance Driving Group &#x40; Homestead Miami Speedway</name>
	<link>/events/performance-driving-group-homestead-miami-speedway-driver-school-657010</link>
	<longitude>-80.4111887028</longitude>
	<latitude>25.45491121</latitude>
</event>
<event>
	<name>Chin Track Days &#x40; Michelin Raceway Road Atlanta</name>
	<link>/events/chin-track-days-michelin-raceway-road-atlanta-driver-school-663107</link>
	<longitude>-83.8143782673</longitude>
	<latitude>34.1483401251</latitude>
</event>
<event>
	<name>Performance Driving Group &#x40; Sebring Int&#x27;l Raceway</name>
	<link>/events/performance-driving-group-sebring-intl-raceway-driver-school-780842</link>
	<longitude>-81.3502645814</longitude>
	<latitude>27.459575146</latitude>
</event>
<event>
	<name>Eagles Canyon Raceway &#x40; Eagles Canyon Raceway</name>
	<link>/events/eagles-canyon-raceway-driver-school-453658</link>
	<longitude>-97.3913668247</longitude>
	<latitude>33.359665012</latitude>
</event>
<event>
	<name>Chin Track Days &#x40; Sebring Int&#x27;l Raceway</name>
	<link>/events/chin-track-days-sebring-intl-raceway-driver-school-184074</link>
	<longitude>-81.3502645814</longitude>
	<latitude>27.459575146</latitude>
</event>
<event>
	<name>Eagles Canyon Raceway &#x40; Eagles Canyon Raceway</name>
	<link>/events/eagles-canyon-raceway-driver-school-845597</link>
	<longitude>-97.3913668247</longitude>
	<latitude>33.359665012</latitude>
</event>
<event>
	<name>MVP Track Time &#x40; Michelin Raceway Road Atlanta</name>
	<link>/events/mvp-track-time-road-atlanta-driver-school-356235</link>
	<longitude>-83.8143782673</longitude>
	<latitude>34.1483401251</latitude>
</event>
<event>
	<name>AutoInterests &#x40; Pittsburgh International Race Compl</name>
	<link>/events/autointerests-pittsburgh-international-race-compl-driver-school-139359</link>
	<longitude>-80.3430097545</longitude>
	<latitude>40.8468500766</latitude>
</event>
<event>
	<name>Lucas Oil School of Racing &#x40; NJMP Thunderbolt</name>
	<link>/events/lucas-oil-school-of-racing-njmp-thunderbolt-driver-503817</link>
	<longitude>-75.0574337156</longitude>
	<latitude>39.3549079508</latitude>
</event>
<event>
	<name>Hooked On Driving - California &#x40; Thunderhill Raceway Park</name>
	<link>/events/hooked-on-driving-california-thunderhill-raceway-park-driver-school-105157</link>
	<longitude>-122.333359856</longitude>
	<latitude>39.5364953601</latitude>
</event>
<event>
	<name>MVP Track Time &#x40; Autobahn Country Club</name>
	<link>/events/mvp-track-time-autobahn-country-club-driver-school-375388</link>
	<longitude>-88.1266386894</longitude>
	<latitude>41.4531523087</latitude>
</event>
<event>
	<name>Lucas Oil School of Racing &#x40; Autobahn Country Club</name>
	<link>/events/lucas-oil-school-of-racing-autobahn-country-club-driver-702522</link>
	<longitude>-88.1266386894</longitude>
	<latitude>41.4531523087</latitude>
</event>
<event>
	<name>August AZP Track Event</name>
	<link>/events/august-azp-track-event-new-york-safety-nyst-events-451399</link>
	<longitude>-74.7808247146</longitude>
	<latitude>42.4867238544</latitude>
</event>
<event>
	<name>Performance Driving Group &#x40; Sebring Int&#x27;l Raceway</name>
	<link>/events/performance-driving-group-sebring-intl-raceway-driver-school-853176</link>
	<longitude>-81.3502645814</longitude>
	<latitude>27.459575146</latitude>
</event>
<event>
	<name>Lexus Performance Driving School &#x40; WeatherTech Raceway Laguna Seca</name>
	<link>/events/lexus-performance-driving-school-weathertech-raceway-laguna-seca-driver-625511</link>
	<longitude>-121.756400117</longitude>
	<latitude>36.5832991486</latitude>
</event>
<event>
	<name>Lexus Performance Driving School &#x40; Circuit of the Americas</name>
	<link>/events/lexus-performance-driving-school-circuit-of-americas-driver-701521</link>
	<longitude>-97.6406004274</longitude>
	<latitude>30.1329402149</latitude>
</event>
<event>
	<name>Chin Track Days &#x40; Watkins Glen International</name>
	<link>/events/chin-track-days-watkins-glen-international-driver-school-903349</link>
	<longitude>-76.9300393591</longitude>
	<latitude>42.3430474102</latitude>
</event>
<event>
	<name>MVP Track Time &#x40; Circuit of the Americas</name>
	<link>/events/mvp-track-time-circuit-of-americas-driver-school-302348</link>
	<longitude>-97.6406004274</longitude>
	<latitude>30.1329402149</latitude>
</event>
<event>
	<name>Daytona 2020 with the Audi Club</name>
	<link>/events/daytona-2020-with-audi-club-intl-speedway-na-ohio-valley-108799</link>
	<longitude>-81.0703702594</longitude>
	<latitude>29.1844967318</latitude>
</event>
<event>
	<name>Xtreme Xperience Raceway Park of the Midlands</name>
	<link>/events/xtreme-xperience-raceway-park-of-midlands-402569</link>
	<longitude>-95.8226089764</longitude>
	<latitude>41.022918693</latitude>
</event>
<event>
	<name>Chin Track Days &#x40; Sebring Int&#x27;l Raceway</name>
	<link>/events/chin-track-days-sebring-intl-raceway-driver-school-823423</link>
	<longitude>-81.3502645814</longitude>
	<latitude>27.459575146</latitude>
</event>
<event>
	<name>PCA-PNWR DE - Portland - October 3, 2020</name>
	<link>/events/pca-pnwr-de-portland-october-3-2020-intl-raceway-pacific-northwest-596115</link>
	<longitude>-122.689745467</longitude>
	<latitude>45.5927148127</latitude>
</event>
<event>
	<name>PCA &#x40; Putnam Park Road Course</name>
	<link>/events/pca-putnam-park-road-course-driver-school-538917</link>
	<longitude>-86.7481016095</longitude>
	<latitude>39.5854234202</latitude>
</event>
<event>
	<name>AZ PCA Track Day &#x40; AMP</name>
	<link>/events/az-pca-track-day-amp-arizona-motorsports-park-075873</link>
	<longitude>-112.390564691</longitude>
	<latitude>33.5100726077</latitude>
</event>
<event>
	<name>1010ths HPDE October 2020 NCM</name>
	<link>/events/1010ths-hpde-october-2020-ncm-motorsport-park-motorsports-123228</link>
	<longitude>-86.3728988279</longitude>
	<latitude>37.0036904617</latitude>
</event>
<event>
	<name>Potomac&#x27;s VIR DE</name>
	<link>/events/potomacs-vir-labor-day-weekend-de-virginia-international-raceway-pca-489312</link>
	<longitude>-79.2085494846</longitude>
	<latitude>36.5637033358</latitude>
</event>
<event>
	<name>Lucas Oil School of Racing &#x40; Autobahn Country Club</name>
	<link>/events/lucas-oil-school-of-racing-autobahn-country-club-driver-270981</link>
	<longitude>-88.1266386894</longitude>
	<latitude>41.4531523087</latitude>
</event>
<event>
	<name>Rookie Fridays &#x28;8&#x2f;28&#x29;</name>
	<link>/events/rookie-fridays-8-28-pineview-run-760137</link>
	<longitude>-76.182270249</longitude>
	<latitude>42.8795621844</latitude>
</event>
<event>
	<name>Friday at the Track-Novice Only</name>
	<link>/events/friday-at-track-novice-only-summit-point-circuit-135839</link>
	<longitude>-77.9761169812</longitude>
	<latitude>39.2431387353</latitude>
</event>
<event>
	<name>Lime Rock Summerfest &#x28;Advanced&#x2f;solo&#x29;</name>
	<link>/events/lime-rock-summerfest-advanced-solo-park-pca-northern-new-jersey-drivers-718291</link>
	<longitude>-73.3804241992</longitude>
	<latitude>41.9323173996</latitude>
</event>
<event>
	<name>Eagles Canyon Raceway &#x40; Eagles Canyon Raceway</name>
	<link>/events/eagles-canyon-raceway-driver-school-742875</link>
	<longitude>-97.3913668247</longitude>
	<latitude>33.359665012</latitude>
</event>
<event>
	<name>NASA at Thunderhill Raceway Park</name>
	<link>/events/nasa-california-northern-thunderhill-raceway-park-hpde-3319</link>
	<longitude>-122.332381</longitude>
	<latitude>39.540969</latitude>
</event>
<event>
	<name>M-Day at the Performance Center</name>
	<link>/events/m-day-at-performance-center-bmw-cca-new-jersey-299038</link>
	<longitude>-82.1787870181</longitude>
	<latitude>34.9051216699</latitude>
</event>
<event>
	<name>Performance Driving Group &#x40; Homestead Miami Speedway</name>
	<link>/events/performance-driving-group-homestead-miami-speedway-driver-school-233178</link>
	<longitude>-80.4111887028</longitude>
	<latitude>25.45491121</latitude>
</event>
<event>
	<name>NCM August HPDE </name>
	<link>/events/ncm-august-hpde-motorsport-park-motorsports-448758</link>
	<longitude>-86.3728988279</longitude>
	<latitude>37.0036904617</latitude>
</event>
<event>
	<name>AZ PCA Track Day &#x40; Bondurant</name>
	<link>/events/az-pca-track-day-bondurant-bob-arizona-626033</link>
	<longitude>-111.970890548</longitude>
	<latitude>33.2698992509</latitude>
</event>
<event>
	<name>MVP Track Time &#x40; NCM Motorsport Park</name>
	<link>/events/mvp-track-time-ncm-motorsport-park-driver-school-391857</link>
	<longitude>-86.3728988279</longitude>
	<latitude>37.0036904617</latitude>
</event>
<event>
	<name>AutoInterests &#x40; Pittsburgh International Race Compl</name>
	<link>/events/autointerests-pittsburgh-international-race-compl-driver-school-043824</link>
	<longitude>-80.3430097545</longitude>
	<latitude>40.8468500766</latitude>
</event>
<event>
	<name>TRSS Coach&#x2f;Volunteer - 8&#x2f;29&#x2f;2020 Warminster Park</name>
	<link>/events/trss-coach-volunteer-8-29-2020-mccc-montgomery-county-community-college-674914</link>
	<longitude>-75.0614771876</longitude>
	<latitude>40.2050172004</latitude>
</event>
<event>
	<name>Trillium DE at CTMP &#x28;August 28-30&#x29;</name>
	<link>/events/trillium-de-at-ctmp-august-canadian-tire-motorsport-park-bmw-cca-457307</link>
	<longitude>-78.6785677862</longitude>
	<latitude>44.0554680422</latitude>
</event>
<event>
	<name>Bertil Roos AM Practice Session</name>
	<link>/events/bertil-roos-am-practice-session-palm-beach-international-raceway-racing-school-047803</link>
	<longitude>-80.3037566574</longitude>
	<latitude>26.9217421452</latitude>
</event>
<event>
	<name>PCA - Maverick &#x40; Eagles Canyon Raceway</name>
	<link>/events/pca-maverick-eagles-canyon-raceway-driver-school-902224</link>
	<longitude>-97.3913668247</longitude>
	<latitude>33.359665012</latitude>
</event>
<event>
	<name>Xtreme Xperience Utah Motorsports Campus</name>
	<link>/events/xtreme-xperience-utah-motorsports-campus-929362</link>
	<longitude>-112.373516539</longitude>
	<latitude>40.5840414728</latitude>
</event>
<event>
	<name>Rookie Fridays &#x28;9&#x2f;4&#x29;</name>
	<link>/events/rookie-fridays-9-4-pineview-run-160830</link>
	<longitude>-76.182270249</longitude>
	<latitude>42.8795621844</latitude>
</event>
<event>
	<name>Xtreme Xperience World Wide Technology Raceway</name>
	<link>/events/xtreme-xperience-world-wide-technology-raceway-tech-at-gateway-789947</link>
	<longitude>-90.1353563427</longitude>
	<latitude>38.6507530136</latitude>
</event>
<event>
	<name>Xtreme Xperience Putnam Park</name>
	<link>/events/xtreme-xperience-putnam-park-road-course-676083</link>
	<longitude>-86.7481016095</longitude>
	<latitude>39.5854234202</latitude>
</event>
<event>
	<name>Lucas Oil School of Racing &#x40; NOLA Motorsports Park</name>
	<link>/events/lucas-oil-school-of-racing-nola-motorsports-park-driver-075365</link>
	<longitude>-90.1682300431</longitude>
	<latitude>29.9045523494</latitude>
</event>
<event>
	<name>Chin Track Days &#x40; Sebring Int&#x27;l Raceway</name>
	<link>/events/chin-track-days-sebring-intl-raceway-driver-school-163879</link>
	<longitude>-81.3502645814</longitude>
	<latitude>27.459575146</latitude>
</event>
<event>
	<name>Chin Track Days &#x40; Sebring Int&#x27;l Raceway</name>
	<link>/events/chin-track-days-sebring-intl-raceway-driver-school-149557</link>
	<longitude>-81.3502645814</longitude>
	<latitude>27.459575146</latitude>
</event>
<event>
	<name>Hooked On Driving - Pacific Northwest Region &#x40; Ridge Motorsports Park, Road Course</name>
	<link>/events/hooked-on-driving-pacific-northwest-ridge-motorsports-park-road-course-704926</link>
	<longitude>-123.107425195</longitude>
	<latitude>46.3453538478</latitude>
</event>
<event>
	<name>PCA-PNWR Solo DE - Pacific Rcwy - Sept 10, 2020</name>
	<link>/events/pca-pnwr-solo-de-pacific-rcwy-sept-10-2020-raceways-northwest-270202</link>
	<longitude>-122.137838861</longitude>
	<latitude>47.3204999553</latitude>
</event>
<event>
	<name>Motorsports Enthusiasts HPDE</name>
	<link>/events/motorsports-enthusiasts-hpde-njmp-lightning-211568</link>
	<longitude>-75.0574337156</longitude>
	<latitude>39.3549079508</latitude>
</event>
<event>
	<name>TRSS Coach&#x2f;Volunteer - 9&#x2f;12&#x2f;20 Oxford Valley Mall</name>
	<link>/events/trss-coach-volunteer-9-12-20-oxford-valley-mall-mid-atlantic-volunteers-652911</link>
	<longitude>-74.8806274387</longitude>
	<latitude>40.1838162932</latitude>
</event>
<event>
	<name>Chin Track Days &#x40; MSR Houston</name>
	<link>/events/chin-track-days-msr-houston-driver-school-433221</link>
	<longitude>-95.4221071742</longitude>
	<latitude>29.2784289084</latitude>
</event>
<event>
	<name>888 Racing &#x40; Area 27 -September 9-10, 2020</name>
	<link>/events/888-racing-area-27-september-9-10-2020-motorsports-park-velocity-autosports-639438</link>
	<longitude>-119.516261994</longitude>
	<latitude>49.1634796534</latitude>
</event>
<event>
	<name>Bertil Roos AM Practice Session</name>
	<link>/events/bertil-roos-am-practice-session-pocono-raceway-racing-school-216853</link>
	<longitude>-75.5118257104</longitude>
	<latitude>41.0522543554</latitude>
</event>
<event>
	<name>Friday at the Track</name>
	<link>/events/friday-at-track-summit-point-circuit-352602</link>
	<longitude>-77.9394456956</longitude>
	<latitude>39.2403315275</latitude>
</event>
<event>
	<name>AutoInterests &#x40; Summit Point Raceway - Shenandoah</name>
	<link>/events/autointerests-summit-point-raceway-shenandoah-driver-school-402868</link>
	<longitude>-77.9395959597</longitude>
	<latitude>39.2403281125</latitude>
</event>
<event>
	<name>Intro to Performance Driving &#x28;May 8th, 2021&#x29;</name>
	<link>/events/intro-to-performance-driving-may-9th-2020-toronto-motorsports-park-tmp-456372</link>
	<longitude>-79.8569666631</longitude>
	<latitude>42.8989667519</latitude>
</event>
<event>
	<name>Intro to Performance Driving &#x28;June 5th, 2021&#x29;</name>
	<link>/events/intro-to-performance-driving-june-6th-2020-toronto-motorsports-park-tmp-701721</link>
	<longitude>-79.8569666631</longitude>
	<latitude>42.8989667519</latitude>
</event>
<event>
	<name>PCA Northeast Region - RSI Workers</name>
	<link>/events/pca-northeast-rsi-workers-watkins-glen-international-race-services-410551</link>
	<longitude>-76.9300393591</longitude>
	<latitude>42.3430474102</latitude>
</event>
<event>
	<name>Motorsports Enthusiasts HPDE</name>
	<link>/events/motorsports-enthusiasts-hpde-njmp-thunderbolt-272825</link>
	<longitude>-75.0574337156</longitude>
	<latitude>39.3549079508</latitude>
</event>
<event>
	<name>MassTuning TrackFest &#x28;August 30, 2020&#x29;</name>
	<link>/events/masstuning-trackfest-june-28-2020-palmer-motorsports-park-692069</link>
	<longitude>-72.3021763861</longitude>
	<latitude>42.2079087024</latitude>
</event>
<event>
	<name>Chin Track Days &#x40; Barber Motorsports Park</name>
	<link>/events/chin-track-days-barber-motorsports-park-driver-school-753968</link>
	<longitude>-86.6209029966</longitude>
	<latitude>33.5322399866</latitude>
</event>
<event>
	<name>APEX DRIVING ACADEMY HPDE on 3.1 mi CCW on SEP 12</name>
	<link>/events/apex-driving-academy-hpde-on-3-1-mi-ccw-sep-12-motorsport-ranch-cresson-389598</link>
	<longitude>-97.6125283499</longitude>
	<latitude>32.5250363862</latitude>
</event>
<event>
	<name>Rookie Fridays &#x28;7&#x2f;10&#x29;</name>
	<link>/events/rookie-fridays-7-10-pineview-run-472237</link>
	<longitude>-76.182270249</longitude>
	<latitude>42.8795621844</latitude>
</event>
<event>
	<name>Xtreme Xperience Memphis International Event &#x23;6</name>
	<link>/events/xtreme-xperience-memphis-international-event-6-raceway-514773</link>
	<longitude>-89.9360377624</longitude>
	<latitude>35.2826842818</latitude>
</event>
<event>
	<name>AutoInterests &#x40; Mid-Ohio Sports Car Course</name>
	<link>/events/autointerests-mid-ohio-sports-car-course-driver-school-654211</link>
	<longitude>-82.640910787</longitude>
	<latitude>40.690414839</latitude>
</event>
<event>
	<name>DafanZ TrackTime 4 Cars&#x28;TT4C&#x29; Pocono East 8&#x2f;9</name>
	<link>/events/dafanz-tracktime-4-cars-tt4c-pocono-east-8-9-raceway-track-time-594406</link>
	<longitude>-75.5118257104</longitude>
	<latitude>41.0522543554</latitude>
</event>
<event>
	<name>Hooked On Driving - Northeast &#x40; Pocono Raceway</name>
	<link>/events/hooked-on-driving-northeast-pocono-raceway-driver-school-972153</link>
	<longitude>-75.5118257104</longitude>
	<latitude>41.0522543554</latitude>
</event>
<event>
	<name>Kart Racing School</name>
	<link>/events/kart-racing-school-atlanta-motorsports-park-ks-391046</link>
	<longitude>-84.1187997985</longitude>
	<latitude>34.4211856918</latitude>
</event>
<event>
	<name>Hooked On Driving - Pacific Northwest Region &#x40; Portland Int&#x27;l Raceway</name>
	<link>/events/hooked-on-driving-pacific-northwest-portland-intl-raceway-driver-school-838104</link>
	<longitude>-122.689745467</longitude>
	<latitude>45.5927148127</latitude>
</event>
<event>
	<name>St. Louis Region SCCA PDE Track Event &#x23;5</name>
	<link>/events/st-louis-scca-pde-track-event-5-circuit-of-old-pdx-414132</link>
	<longitude>-90.1371458522</longitude>
	<latitude>38.659468335</latitude>
</event>
<event>
	<name>Rookie Fridays &#x28;8&#x2f;14&#x29;</name>
	<link>/events/rookie-fridays-8-14-pineview-run-047533</link>
	<longitude>-76.182270249</longitude>
	<latitude>42.8795621844</latitude>
</event>
<event>
	<name>Performance Driving Group &#x40; Sebring Int&#x27;l Raceway</name>
	<link>/events/performance-driving-group-sebring-intl-raceway-driver-school-145492</link>
	<longitude>-81.3502645814</longitude>
	<latitude>27.459575146</latitude>
</event>
<event>
	<name>1morelap Novice Day Saturday August 15th</name>
	<link>/events/1morelap-novice-day-saturday-august-15th-calabogie-motorsports-park-751137</link>
	<longitude>-76.6726710011</longitude>
	<latitude>45.3041222449</latitude>
</event>
<event>
	<name>AutoInterests &#x40; NCM Motorsport Park</name>
	<link>/events/autointerests-ncm-motorsport-park-driver-school-898788</link>
	<longitude>-86.3728988279</longitude>
	<latitude>37.0036904617</latitude>
</event>
<event>
	<name>Intro to Performance Driving &#x28;July 10th, 2021&#x29;</name>
	<link>/events/intro-to-performance-driving-july-4th-2020-toronto-motorsports-park-tmp-382163</link>
	<longitude>-79.8569666631</longitude>
	<latitude>42.8989667519</latitude>
</event>
<event>
	<name>St. Louis Region SCCA PDE Track Event &#x23;6</name>
	<link>/events/st-louis-scca-pde-track-event-6-circuit-of-old-pdx-220240</link>
	<longitude>-90.1371458522</longitude>
	<latitude>38.659468335</latitude>
</event>
<event>
	<name>Performance Driving Group &#x40; Sebring Int&#x27;l Raceway</name>
	<link>/events/performance-driving-group-sebring-intl-raceway-driver-school-453247</link>
	<longitude>-81.3502645814</longitude>
	<latitude>27.459575146</latitude>
</event>
<event>
	<name>ACNW Ausflug &#x27;21</name>
	<link>/events/acnw-ausflug-20-area-27-audi-club-na-northwest-958673</link>
	<longitude>-119.52623407</longitude>
	<latitude>49.1554883321</latitude>
</event>
<event>
	<name>Road America Test &amp; Tune Day August 12, 2020</name>
	<link>/events/road-america-test-tune-day-august-12-2020-603228</link>
	<longitude>-87.9868178869</longitude>
	<latitude>43.8045064016</latitude>
</event>
<event>
	<name>NCR&#x2f;PCA - Mid Summer Tamworth - REVISED</name>
	<link>/events/ncr-pca-mid-summer-tamworth-revised-club-motorsports-north-country-887835</link>
	<longitude>-71.1786444189</longitude>
	<latitude>43.7923281743</latitude>
</event>
<event>
	<name>BMWCCO &#x2f; MCO - Advanced Driving School &#x2f; Lapping</name>
	<link>/events/bmwcco-mco-advanced-driving-school-lapping-calabogie-motorsports-park-bmw-940306</link>
	<longitude>-76.6726710011</longitude>
	<latitude>45.3041222449</latitude>
</event>
<event>
	<name>AutoInterests &#x40; Summit Point - Summit Point Circuit</name>
	<link>/events/autointerests-summit-point-circuit-driver-school-913990</link>
	<longitude>-77.9761169812</longitude>
	<latitude>39.2431387353</latitude>
</event>
<event>
	<name>DafanZ TrackTime 4 Cars&#x28;TT4C&#x29; Pocono North 9&#x2f;6</name>
	<link>/events/dafanz-tracktime-4-cars-tt4c-pocono-north-9-6-raceway-track-time-085297</link>
	<longitude>-75.5118257104</longitude>
	<latitude>41.0522543554</latitude>
</event>
<event>
	<name>High Performance Driving Course</name>
	<link>/events/high-performance-driving-course-portland-intl-raceway-pro-drive-466524</link>
	<longitude>-122.689745467</longitude>
	<latitude>45.5927148127</latitude>
</event>
<event>
	<name>CGI Motorsports &#x40; GingerMan Raceway</name>
	<link>/events/cgi-motorsports-gingerman-raceway-driver-school-386629</link>
	<longitude>-86.1419154906</longitude>
	<latitude>42.4114824905</latitude>
</event>
<event>
	<name>High Performance Driving Clinic - Summer&#x2f;Fall</name>
	<link>/events/high-performance-driving-clinic-summer-fall-summit-point-raceway-412298</link>
	<longitude>-77.9394456956</longitude>
	<latitude>39.2403315275</latitude>
</event>
<event>
	<name>Chin Track Days &#x40; Sebring Int&#x27;l Raceway</name>
	<link>/events/chin-track-days-sebring-intl-raceway-driver-school-296382</link>
	<longitude>-81.3502645814</longitude>
	<latitude>27.459575146</latitude>
</event>
<event>
	<name>Schattenbaum NJMP T&#x27;bolt Adv. DE at Club Race</name>
	<link>/events/schattenbaum-njmp-t-bolt-adv-de-at-club-race-thunderbolt-raceway-pca-455133</link>
	<longitude>-75.0574337156</longitude>
	<latitude>39.3549079508</latitude>
</event>
<event>
	<name>Bish&#x27;s Run New York Safety Track July 14 2020</name>
	<link>/events/bishs-run-new-york-safety-track-july-14-2020-nyst-hpd-instructor-515534</link>
	<longitude>-74.7808247146</longitude>
	<latitude>42.4867238544</latitude>
</event>
<event>
	<name>Kart Racing School</name>
	<link>/events/kart-racing-school-atlanta-motorsports-park-ks-036256</link>
	<longitude>-84.1187997985</longitude>
	<latitude>34.4211856918</latitude>
</event>
<event>
	<name>APEX DRIVING ACADEMY HPDE on 1.7 mi CW on DEC 5</name>
	<link>/events/apex-driving-academy-hpde-on-1-7-mi-cw-dec-5-motorsport-ranch-cresson-218106</link>
	<longitude>-97.6125283499</longitude>
	<latitude>32.5250363862</latitude>
</event>
<event>
	<name>SCCA Majors Test Day August 14, 2020</name>
	<link>/events/scca-majors-test-day-august-14-2020-road-america-862826</link>
	<longitude>-87.9868178869</longitude>
	<latitude>43.8045064016</latitude>
</event>
<event>
	<name>MR2 Track Day</name>
	<link>/events/mr2-track-day-canaan-motor-club-masstuning-116421</link>
	<longitude>-72.0001454211</longitude>
	<latitude>43.6498333528</latitude>
</event>
<event>
	<name>Hooked On Driving - California &#x40; Thunderhill Raceway Park</name>
	<link>/events/hooked-on-driving-california-thunderhill-raceway-park-driver-school-427886</link>
	<longitude>-122.333359856</longitude>
	<latitude>39.5364953601</latitude>
</event>
<event>
	<name>Putnam Park Road Course Windy City BMW HPDE 2020</name>
	<link>/events/putnam-park-road-course-windy-city-bmw-hpde-2020-cca-860084</link>
	<longitude>-86.7481016095</longitude>
	<latitude>39.5854234202</latitude>
</event>
<event>
	<name>2020 Mustangs Northwest Ride and Drive</name>
	<link>/events/2019-mustangs-northwest-ride-drive-pacific-raceways-859575</link>
	<longitude>-122.137838861</longitude>
	<latitude>47.3204999553</latitude>
</event>
<event>
	<name>Intro to Racing - Roush Stage 3 - LRP</name>
	<link>/events/intro-to-racing-roush-stage-3-lrp-lime-rock-park-skip-barber-school-292064</link>
	<longitude>-73.3804241992</longitude>
	<latitude>41.9323173996</latitude>
</event>
<event>
	<name>Motorsports Enthusiasts HPDE</name>
	<link>/events/motorsports-enthusiasts-hpde-njmp-lightning-011000</link>
	<longitude>-75.0574337156</longitude>
	<latitude>39.3549079508</latitude>
</event>
<event>
	<name>MassTuning TrackFest &#x28;August 15, 2020&#x29;</name>
	<link>/events/masstuning-trackfest-august-15-2020-club-motorsports-748182</link>
	<longitude>-71.1786444189</longitude>
	<latitude>43.7923281743</latitude>
</event>
<event>
	<name>Streets of Willow Clock Wise</name>
	<link>/events/streets-of-willow-clock-wise-springs-intl-raceway-extreme-speed-track-events-109995</link>
	<longitude>-118.264001452</longitude>
	<latitude>34.8711448938</latitude>
</event>
<event>
	<name>PCA Metro NY Region - RSI Workers</name>
	<link>/events/pca-metro-ny-rsi-workers-watkins-glen-international-race-services-939231</link>
	<longitude>-76.9300393591</longitude>
	<latitude>42.3430474102</latitude>
</event>
<event>
	<name>3 Day Racing School - Mustang GT  </name>
	<link>/events/3-day-racing-school-mustang-gt-lime-rock-park-skip-barber-973126</link>
	<longitude>-73.3804241992</longitude>
	<latitude>41.9323173996</latitude>
</event>
<event>
	<name>St. Louis Region SCCA PDE Track Event &#x23;4</name>
	<link>/events/st-louis-scca-pde-track-event-4-circuit-of-old-pdx-024541</link>
	<longitude>-90.1371458522</longitude>
	<latitude>38.659468335</latitude>
</event>
<event>
	<name>NCR&#x2f;PCA - Fall Tamworth</name>
	<link>/events/ncr-pca-fall-tamworth-club-motorsports-north-country-drivers-education-788765</link>
	<longitude>-71.1786444189</longitude>
	<latitude>43.7923281743</latitude>
</event>
<event>
	<name>Hagerty Driving Academy </name>
	<link>/events/hagerty-driving-academy-new-jersey-motorsports-park-skip-barber-racing-school-713990</link>
	<longitude>-75.0574678665</longitude>
	<latitude>39.3549250263</latitude>
</event>
<event>
	<name>1 Day Racing School - Mustang GT </name>
	<link>/events/1-day-racing-school-mustang-gt-lime-rock-park-skip-barber-656748</link>
	<longitude>-73.3804241992</longitude>
	<latitude>41.9323173996</latitude>
</event>
<event>
	<name>1 Day Racing School - Mustang GT - NJMP</name>
	<link>/events/1-day-racing-school-mustang-gt-njmp-new-jersey-motorsports-park-skip-barber-090248</link>
	<longitude>-75.0574678665</longitude>
	<latitude>39.3549250263</latitude>
</event>
<event>
	<name>Friday at the Track-Novice Only</name>
	<link>/events/friday-at-track-novice-only-summit-point-raceway-jefferson-286572</link>
	<longitude>-77.9395959597</longitude>
	<latitude>39.2403281125</latitude>
</event>
<event>
	<name>3 Day Racing School - Mustang GT </name>
	<link>/events/3-day-racing-school-mustang-gt-lime-rock-park-skip-barber-413240</link>
	<longitude>-73.3804241992</longitude>
	<latitude>41.9323173996</latitude>
</event>
<event>
	<name>Hagerty Driving Academy </name>
	<link>/events/hagerty-driving-academy-lime-rock-park-skip-barber-racing-school-373388</link>
	<longitude>-73.3804241992</longitude>
	<latitude>41.9323173996</latitude>
</event>
<event>
	<name>1 Day Racing School - Mustang GT </name>
	<link>/events/1-day-racing-school-mustang-gt-lime-rock-park-skip-barber-396440</link>
	<longitude>-73.3804241992</longitude>
	<latitude>41.9323173996</latitude>
</event>
<event>
	<name>Intro to Racing - Roush Stage 3 - LRP</name>
	<link>/events/intro-to-racing-roush-stage-3-lrp-lime-rock-park-skip-barber-school-316783</link>
	<longitude>-73.3804241992</longitude>
	<latitude>41.9323173996</latitude>
</event>
<event>
	<name>Motorsports Enthusiasts HPDE</name>
	<link>/events/motorsports-enthusiasts-hpde-njmp-thunderbolt-461376</link>
	<longitude>-75.0574337156</longitude>
	<latitude>39.3549079508</latitude>
</event>
<event>
	<name>Shenandoah Driver School</name>
	<link>/events/shenandoah-driver-school-summit-point-raceway-bmw-cca-new-jersey-839682</link>
	<longitude>-77.9395959597</longitude>
	<latitude>39.2403281125</latitude>
</event>
<event>
	<name>SCDA- Lime Rock Park- UNMUFFLED Track Event- 9&#x2f;8</name>
	<link>/events/scda-lime-rock-park-unmuffled-track-event-9-8-sports-car-driving-association-416706</link>
	<longitude>-73.3804241992</longitude>
	<latitude>41.9323173996</latitude>
</event>
<event>
	<name>BMWCCA PSR HPDE &#x40; PACIFIC Sept 11, 2020</name>
	<link>/events/bmwcca-psr-hpde-pacific-sept-11-2020-raceways-bmw-cca-puget-sound-224497</link>
	<longitude>-122.137838861</longitude>
	<latitude>47.3204999553</latitude>
</event>
<event>
	<name>Fall Fastival 2020</name>
	<link>/events/fall-fastival-2020-putnam-park-road-course-pca-kentucky-460855</link>
	<longitude>-86.7481016095</longitude>
	<latitude>39.5854234202</latitude>
</event>
<event>
	<name>Bertil Roos 1&#x2f;2 Day &amp; 1 Day Road Racing Adventure</name>
	<link>/events/bertil-roos-1-2-day-road-racing-adventure-pocono-raceway-school-577942</link>
	<longitude>-75.5118257104</longitude>
	<latitude>41.0522543554</latitude>
</event>
<event>
	<name>2020 RMVR Drivers&#x27; School</name>
	<link>/events/2020-rmvr-drivers-school-pikes-peak-intl-raceway-rocky-mountain-vintage-racing-689855</link>
	<longitude>-104.67891229</longitude>
	<latitude>38.5906644244</latitude>
</event>
<event>
	<name>TSCC Summer 2-Day HPDE at NCCAR</name>
	<link>/events/tscc-summer-2-day-hpde-at-nccar-tidewater-sports-car-club-619317</link>
	<longitude>-77.5588675551</longitude>
	<latitude>36.450984724</latitude>
</event>
<event>
	<name>Bertil Roos 1&#x2f;2 Day Road Racing Adventure</name>
	<link>/events/bertil-roos-1-2-day-road-racing-adventure-pocono-raceway-school-081792</link>
	<longitude>-75.5118257104</longitude>
	<latitude>41.0522543554</latitude>
</event>
<event>
	<name>ARPCA - Mid-Ohio - High Perf. Driver Education</name>
	<link>/events/arpca-mid-ohio-high-perf-driver-education-sports-car-course-pca-allegheny-358726</link>
	<longitude>-82.640910787</longitude>
	<latitude>40.690414839</latitude>
</event>
<event>
	<name>August 2020 &#x2f;&#x2f;&#x2f;M Club Day &#x40; BMW Performance Center</name>
	<link>/events/august-2020-m-club-day-bmw-performance-center-cca-national-capital-861008</link>
	<longitude>-82.1772365651</longitude>
	<latitude>34.9060881416</latitude>
</event>
<event>
	<name>Fall 2020 Driving School</name>
	<link>/events/august-2020-driving-school-michelin-raceway-road-atlanta-bmw-cca-569000</link>
	<longitude>-83.8143782673</longitude>
	<latitude>34.1483401251</latitude>
</event>
<event>
	<name>SCDA- Watkins Glen- 2 Day Track Event- Aug 31-Sep1</name>
	<link>/events/scda-watkins-glen-2-day-track-event-aug-31-sep1-international-sports-car-921385</link>
	<longitude>-76.9300393591</longitude>
	<latitude>42.3430474102</latitude>
</event>
<event>
	<name>Bertil Roos Car Control Clinic</name>
	<link>/events/bertil-roos-car-control-clinic-pocono-raceway-racing-school-399650</link>
	<longitude>-75.5118257104</longitude>
	<latitude>41.0522543554</latitude>
</event>
<event>
	<name>Bertil Roos 3 Day Road Racing School</name>
	<link>/events/bertil-roos-3-day-road-racing-school-palm-beach-international-raceway-120242</link>
	<longitude>-80.3037566574</longitude>
	<latitude>26.9217421452</latitude>
</event>
<event>
	<name>BMW CVC Lime Rock Park HPDE - Apr. 17, 2021</name>
	<link>/events/bmw-cvc-lime-rock-park-hpde-apr-17-2021-cca-connecticut-valley-090541</link>
	<longitude>-73.3804241992</longitude>
	<latitude>41.9323173996</latitude>
</event>
<event>
	<name>CSCC HPDE Gift Certificate</name>
	<link>/events/cscc-hpde-gift-certificate-portland-intl-raceway-cascade-sports-car-club-984469</link>
	<longitude>-122.689745467</longitude>
	<latitude>45.5927148127</latitude>
</event>
<event>
	<name>3 Day, 2 Day Advanced, and 5 Day Road Racing Week</name>
	<link>/events/3-day-2-advanced-5-road-racing-week-pocono-raceway-bertil-roos-school-387937</link>
	<longitude>-75.5118257104</longitude>
	<latitude>41.0522543554</latitude>
</event>
<event>
	<name>BMWCCA PSR HPDE &#x40; PACIFIC July 9, 2020</name>
	<link>/events/bmwcca-psr-hpde-pacific-july-16-2020-raceways-bmw-cca-puget-sound-633025</link>
	<longitude>-122.137838861</longitude>
	<latitude>47.3204999553</latitude>
</event>
<event>
	<name>Rookie Fridays &#x28;8&#x2f;7&#x29;</name>
	<link>/events/rookie-fridays-8-7-pineview-run-624328</link>
	<longitude>-76.182270249</longitude>
	<latitude>42.8795621844</latitude>
</event>
<event>
	<name>BMW CVC Lime Rock Park Autocross &amp; Skid Pad Clinic</name>
	<link>/events/bmw-cvc-lime-rock-park-autocross-skid-pad-clinic-cca-connecticut-valley-656069</link>
	<longitude>-73.3804241992</longitude>
	<latitude>41.9323173996</latitude>
</event>
<event>
	<name>3 Day, 2 Day Advanced, and 5 Day Road Racing Week</name>
	<link>/events/3-day-2-advanced-5-road-racing-week-new-jersey-motorsports-park-bertil-635806</link>
	<longitude>-75.0574678665</longitude>
	<latitude>39.3549250263</latitude>
</event>
<event>
	<name>Cascade &#x28;CSCC&#x29; HPDE Track Day August 14th, 2020</name>
	<link>/events/cascade-cscc-hpde-track-day-august-14th-2020-portland-intl-raceway-sports-264969</link>
	<longitude>-122.689745467</longitude>
	<latitude>45.5927148127</latitude>
</event>
<event>
	<name>Thompson HPDE and Time Trial</name>
