<motocross>
<event>
	<name>Doublin Gap MX Park &#x40; Doublin Gap MX Park</name>
	<link>/events/doublin-gap-mx-park-motocross-495797</link>
	<longitude>-77.1715206972</longitude>
	<latitude>40.2631865065</latitude>
</event>
<event>
	<name>Doublin Gap MX Park &#x40; Doublin Gap MX Park</name>
	<link>/events/doublin-gap-mx-park-motocross-888107</link>
	<longitude>-77.1715206972</longitude>
	<latitude>40.2631865065</latitude>
</event>
<event>
	<name>Doublin Gap MX Park &#x40; Doublin Gap MX Park</name>
	<link>/events/doublin-gap-mx-park-motocross-913998</link>
	<longitude>-77.1715206972</longitude>
	<latitude>40.2631865065</latitude>
</event>
<event>
	<name>Doublin Gap MX Park &#x40; Doublin Gap MX Park</name>
	<link>/events/doublin-gap-mx-park-motocross-131887</link>
	<longitude>-77.1715206972</longitude>
	<latitude>40.2631865065</latitude>
</event>
<event>
	<name>VMX - Monster Mountain MX - Redwood Engineering</name>
	<link>/events/vmx-monster-mountain-mx-redwood-engineering-ahrma-365509</link>
	<longitude>-85.9813855546</longitude>
	<latitude>32.5618067096</latitude>
</event>
<event>
	<name>NGMX -Archview Mx Park- 2020</name>
	<link>/events/ngmx-archview-mx-park-2020-ahrma-300677</link>
	<longitude>-90.098466491</longitude>
	<latitude>38.6179339547</latitude>
</event>
<event>
	<name>NGMX-Saddleback East-Bedford KY - 2020</name>
	<link>/events/ngmx-saddleback-east-bedford-ky-2020-ahrma-447387</link>
	<longitude>-85.251689125</longitude>
	<latitude>38.6474847681</latitude>
</event>
<event>
	<name>PVMX -Archview Mx Park- Race Tech</name>
	<link>/events/pvmx-archview-mx-park-race-tech-ahrma-145020</link>
	<longitude>-90.098466491</longitude>
	<latitude>38.6179339547</latitude>
</event>
<event>
	<name>VMX-Saddleback East-Bedford - Redwood Engineering </name>
	<link>/events/vmx-saddleback-east-bedford-redwood-engineering-ahrma-166474</link>
	<longitude>-85.251689125</longitude>
	<latitude>38.6474847681</latitude>
</event>
<event>
	<name>VMX-Rattlers Run -Redwood Engineering </name>
	<link>/events/vmx-rattlers-run-redwood-engineering-farms-ahrma-220537</link>
	<longitude>-117.211728848</longitude>
	<latitude>47.3982855647</latitude>
</event>
<event>
	<name>NGMX -Texas Vintage GP-2020</name>
	<link>/events/ngmx-texas-vintage-gp-2020-grand-prix-course-ahrma-694965</link>
	<longitude>-96.2163625518</longitude>
	<latitude>31.4548789322</latitude>
</event>
<event>
	<name>NGMX - Monster Mountain MX</name>
	<link>/events/ngmx-monster-mountain-mx-ahrma-350716</link>
	<longitude>-85.9813855546</longitude>
	<latitude>32.5618067096</latitude>
</event>
<event>
	<name>VMX - Mill Creek Motorsports-Redwood Engineering </name>
	<link>/events/vmx-mill-creek-motorsports-redwood-engineering-park-ahrma-216171</link>
	<longitude>-93.8393610985</longitude>
	<latitude>35.7981928093</latitude>
</event>
<event>
	<name>PVMX - Texas Vintage GP - Race Tech</name>
	<link>/events/pvmx-texas-vintage-gp-race-tech-grand-prix-course-ahrma-421858</link>
	<longitude>-96.2163625518</longitude>
	<latitude>31.4548789322</latitude>
</event>
<event>
	<name>VMX-Bushey Ranch- Redwood Engineering </name>
	<link>/events/vmx-bushey-ranch-redwood-engineering-ahrma-945557</link>
	<longitude>-120.9932221</longitude>
	<latitude>41.4160746268</latitude>
</event>
<event>
	<name>Doublin Gap MX Park &#x40; Doublin Gap MX Park</name>
	<link>/events/doublin-gap-mx-park-motocross-049154</link>
	<longitude>-77.1715206972</longitude>
	<latitude>40.2631865065</latitude>
</event>
<event>
	<name>VMX -Archview Mx Park-Redwood Engineering </name>
	<link>/events/vmx-archview-mx-park-redwood-engineering-ahrma-743621</link>
	<longitude>-90.098466491</longitude>
	<latitude>38.6179339547</latitude>
</event>
<event>
	<name>NGMX - Glen Helen Raceway</name>
	<link>/events/ngmx-glen-helen-2020-raceway-ahrma-574693</link>
	<longitude>-117.390010446</longitude>
	<latitude>34.1905575243</latitude>
</event>
<event>
	<name>NGMX - Mill Creek Motorsports - 2020</name>
	<link>/events/ngmx-mill-creek-motorsports-2020-park-ahrma-057354</link>
	<longitude>-93.8393610985</longitude>
	<latitude>35.7981928093</latitude>
</event>
<event>
	<name>PVMX - Glen Helen Raceway - Race Tech</name>
	<link>/events/pvmx-glen-helen-race-tech-raceway-ahrma-851984</link>
	<longitude>-117.390010446</longitude>
	<latitude>34.1905575243</latitude>
</event>
<event>
	<name>PVMX - Mill Creek Motorsports - Race Tech</name>
	<link>/events/pvmx-mill-creek-motorsports-race-tech-park-ahrma-792244</link>
	<longitude>-93.8393610985</longitude>
	<latitude>35.7981928093</latitude>
</event>
<event>
	<name>VMX - Glen Helen Raceway - Redwood Engineering</name>
	<link>/events/vmx-glen-helen-2020-raceway-ahrma-974756</link>
	<longitude>-117.390010446</longitude>
	<latitude>34.1905575243</latitude>
</event>
<event>
	<name>PVMX -Saddleback East-Bedford KY - Race Tech</name>
	<link>/events/pvmx-saddleback-east-bedford-ky-race-tech-ahrma-247318</link>
	<longitude>-85.251689125</longitude>
	<latitude>38.6474847681</latitude>
</event>
<event>
	<name>VMX - Diamond Dons 18th Annual-Redwood Engineering</name>
	<link>/events/vmx-diamond-dons-18th-annual-redwood-engineering-don-empire-ahrma-726216</link>
	<longitude>-94.3382722664</longitude>
	<latitude>32.7724565737</latitude>
</event>
<event>
	<name>PVMX - Diamond Dons 18th Annual - Race Tech</name>
	<link>/events/pvmx-diamond-dons-18th-annual-race-tech-don-empire-ahrma-873131</link>
	<longitude>-94.3382722664</longitude>
	<latitude>32.7724565737</latitude>
</event>
<event>
	<name>PVMX - Monster Mountain MX - Race Tech</name>
	<link>/events/pvmx-monster-mountain-mx-race-tech-ahrma-864911</link>
	<longitude>-85.9813855546</longitude>
	<latitude>32.5618067096</latitude>
</event>
<event>
	<name>VMX -Texas Vintage GP - Redwood Engineering</name>
	<link>/events/vmx-texas-vintage-gp-redwood-engineering-grand-prix-course-ahrma-280072</link>
	<longitude>-96.2163625518</longitude>
	<latitude>31.4548789322</latitude>
</event>
</motocross>
